[
  {
    "name": "Adrar",
    "code_postal": 1001,
    "longitude": -1.3582442169365363,
    "latitude": 26.4888155,
    "wilaya": 1
  },
  {
    "name": "Tamest",
    "code_postal": 1002,
    "longitude": -0.2457959,
    "latitude": 27.4237416,
    "wilaya": 1
  },
  {
    "name": "Charouine",
    "code_postal": 1003,
    "longitude": -0.2585993,
    "latitude": 29.0186064,
    "wilaya": 1
  },
  {
    "name": "Reggane",
    "code_postal": 1004,
    "longitude": 0.1751507,
    "latitude": 26.7207267,
    "wilaya": 1
  },
  {
    "name": "Inozghmir",
    "code_postal": 1005,
    "longitude": "3.04",
    "latitude": "30.7071885",
    "wilaya": 1
  },
  {
    "name": "Tit",
    "code_postal": 1006,
    "longitude": 1.4910197,
    "latitude": 26.9383021,
    "wilaya": 1
  },
  {
    "name": "Ksar Kaddour",
    "code_postal": 1007,
    "longitude": 5.3368381,
    "latitude": 31.9554239,
    "wilaya": 1
  },
  {
    "name": "Tsabit",
    "code_postal": 1008,
    "longitude": -0.2161001,
    "latitude": 28.3509683,
    "wilaya": 1
  },
  {
    "name": "Timimoun",
    "code_postal": 1009,
    "longitude": 0.8485978976216642,
    "latitude": 30.0244725,
    "wilaya": 1
  },
  {
    "name": "Ouled Said",
    "code_postal": 1010,
    "longitude": 0.2444383,
    "latitude": 29.4149964,
    "wilaya": 1
  },
  {
    "name": "Zaouiet Kounta",
    "code_postal": 1011,
    "longitude": -0.1933113,
    "latitude": 27.2300419,
    "wilaya": 1
  },
  {
    "name": "Aoulef",
    "code_postal": 1012,
    "longitude": 1.0786817,
    "latitude": 26.9722077,
    "wilaya": 1
  },
  {
    "name": "Timokten",
    "code_postal": 1013,
    "longitude": 1.0140877,
    "latitude": 27.0214579,
    "wilaya": 1
  },
  {
    "name": "Tamentit",
    "code_postal": 1014,
    "longitude": -69.1804899,
    "latitude": -20.9668132,
    "wilaya": 1
  },
  {
    "name": "Fenoughil",
    "code_postal": 1015,
    "longitude": -0.3021104,
    "latitude": 27.6060965,
    "wilaya": 1
  },
  {
    "name": "Tinerkouk",
    "code_postal": 1016,
    "longitude": 1.3611995986099488,
    "latitude": 30.461939,
    "wilaya": 1
  },
  {
    "name": "Deldoul",
    "code_postal": 1017,
    "longitude": 0.0520901,
    "latitude": 28.7700895,
    "wilaya": 1
  },
  {
    "name": "Sali",
    "code_postal": 1018,
    "longitude": 15.1633855,
    "latitude": 43.9381952,
    "wilaya": 1
  },
  {
    "name": "Akabli",
    "code_postal": 1019,
    "longitude": 1.3691963,
    "latitude": 26.7133917,
    "wilaya": 1
  },
  {
    "name": "Metarfa",
    "code_postal": 1020,
    "longitude": -0.1499377,
    "latitude": 28.5890013,
    "wilaya": 1
  },
  {
    "name": "O Ahmed Timmi",
    "code_postal": 1021,
    "longitude": -0.2812795,
    "latitude": 27.8510411,
    "wilaya": 1
  },
  {
    "name": "Bouda",
    "code_postal": 1022,
    "longitude": -0.426797,
    "latitude": 28.010002,
    "wilaya": 1
  },
  {
    "name": "Aougrout",
    "code_postal": 1023,
    "longitude": 0.3406103,
    "latitude": 28.7074429,
    "wilaya": 1
  },
  {
    "name": "Talmine",
    "code_postal": 1024,
    "longitude": -0.4986259,
    "latitude": 29.3296013,
    "wilaya": 1
  },
  {
    "name": "B Badji Mokhtar",
    "code_postal": 1025,
    "longitude": 0.12758168507861467,
    "latitude": 22.626146050000003,
    "wilaya": 1
  },
  {
    "name": "Sbaa",
    "code_postal": 1026,
    "longitude": 7.4738525,
    "latitude": 36.5464868,
    "wilaya": 1
  },
  {
    "name": "Ouled Aissa",
    "code_postal": 1027,
    "longitude": -0.0891357,
    "latitude": 29.4235586,
    "wilaya": 1
  },
  {
    "name": "Timiaouine",
    "code_postal": 1028,
    "longitude": 1.8101265,
    "latitude": 20.4339578,
    "wilaya": 1
  },
  {
    "name": "Chlef",
    "code_postal": 2001,
    "longitude": 1.331499,
    "latitude": 36.164592,
    "wilaya": 2
  },
  {
    "name": "Tenes",
    "code_postal": 2002,
    "longitude": 1.3078072,
    "latitude": 36.5080818,
    "wilaya": 2
  },
  {
    "name": "Benairia",
    "code_postal": 2003,
    "longitude": 1.3750249,
    "latitude": 36.3536104,
    "wilaya": 2
  },
  {
    "name": "El Karimia",
    "code_postal": 2004,
    "longitude": 1.5534446,
    "latitude": 36.1121742,
    "wilaya": 2
  },
  {
    "name": "Tadjna",
    "code_postal": 2005,
    "longitude": 5.9746617,
    "latitude": 36.1161324,
    "wilaya": 2
  },
  {
    "name": "Taougrite",
    "code_postal": 2006,
    "longitude": 0.9222293,
    "latitude": 36.2472325,
    "wilaya": 2
  },
  {
    "name": "Beni Haoua",
    "code_postal": 2007,
    "longitude": 1.5692626,
    "latitude": 36.5304451,
    "wilaya": 2
  },
  {
    "name": "Sobha",
    "code_postal": 2008,
    "longitude": 1.1095344,
    "latitude": 36.1069315,
    "wilaya": 2
  },
  {
    "name": "Harchoun",
    "code_postal": 2009,
    "longitude": 1.5061783,
    "latitude": 36.1137919,
    "wilaya": 2
  },
  {
    "name": "Ouled Fares",
    "code_postal": 2010,
    "longitude": 1.2343427,
    "latitude": 36.2308944,
    "wilaya": 2
  },
  {
    "name": "Sidi Akacha",
    "code_postal": 2011,
    "longitude": 1.3052519,
    "latitude": 36.4649578,
    "wilaya": 2
  },
  {
    "name": "Boukadir",
    "code_postal": 2012,
    "longitude": 1.1278681,
    "latitude": 36.0650746,
    "wilaya": 2
  },
  {
    "name": "Beni Rached",
    "code_postal": 2013,
    "longitude": 1.5235217,
    "latitude": 36.2770909,
    "wilaya": 2
  },
  {
    "name": "Talassa",
    "code_postal": 2014,
    "longitude": 1.0936225,
    "latitude": 36.4257717,
    "wilaya": 2
  },
  {
    "name": "Herenfa",
    "code_postal": 2015,
    "longitude": 4.83462866367042,
    "latitude": 51.1855307,
    "wilaya": 2
  },
  {
    "name": "Oued Goussine",
    "code_postal": 2016,
    "longitude": 1.4971862,
    "latitude": 36.5242926,
    "wilaya": 2
  },
  {
    "name": "Dahra",
    "code_postal": 2017,
    "longitude": 0.8518821,
    "latitude": 36.2545642,
    "wilaya": 2
  },
  {
    "name": "Ouled Abbes",
    "code_postal": 2018,
    "longitude": 1.4860684,
    "latitude": 36.2147686,
    "wilaya": 2
  },
  {
    "name": "Sendjas",
    "code_postal": 2019,
    "longitude": 1.4006069,
    "latitude": 36.0628381,
    "wilaya": 2
  },
  {
    "name": "Zeboudja",
    "code_postal": 2020,
    "longitude": 1.4302999,
    "latitude": 36.3540252,
    "wilaya": 2
  },
  {
    "name": "Oued Sly",
    "code_postal": 2021,
    "longitude": 1.1995738,
    "latitude": 36.101565,
    "wilaya": 2
  },
  {
    "name": "Abou El Hassen",
    "code_postal": 2022,
    "longitude": 1.1938241,
    "latitude": 36.4145938,
    "wilaya": 2
  },
  {
    "name": "El Marsa",
    "code_postal": 2023,
    "longitude": 0.9161822,
    "latitude": 36.4038198,
    "wilaya": 2
  },
  {
    "name": "Chettia",
    "code_postal": 2024,
    "longitude": 1.2491044,
    "latitude": 36.1929178,
    "wilaya": 2
  },
  {
    "name": "Sidi Abderrahmane",
    "code_postal": 2025,
    "longitude": 1.1313881,
    "latitude": 34.7992895,
    "wilaya": 2
  },
  {
    "name": "Moussadek",
    "code_postal": 2026,
    "longitude": 1.0084373,
    "latitude": 36.3536152,
    "wilaya": 2
  },
  {
    "name": "El Hadjadj",
    "code_postal": 2027,
    "longitude": 1.3771856,
    "latitude": 36.0154871,
    "wilaya": 2
  },
  {
    "name": "Labiod Medjadja",
    "code_postal": 2028,
    "longitude": 1.3919112,
    "latitude": 36.2507309,
    "wilaya": 2
  },
  {
    "name": "Oued Fodda",
    "code_postal": 2029,
    "longitude": 1.5347489,
    "latitude": 36.185966,
    "wilaya": 2
  },
  {
    "name": "Ouled Ben Abdelkader",
    "code_postal": 2030,
    "longitude": 1.2761855,
    "latitude": 36.0238897,
    "wilaya": 2
  },
  {
    "name": "Bouzghaia",
    "code_postal": 2031,
    "longitude": 6.886743554481236,
    "latitude": 36.87593135,
    "wilaya": 2
  },
  {
    "name": "Ain Merane",
    "code_postal": 2032,
    "longitude": 0.9758629,
    "latitude": 36.1620671,
    "wilaya": 2
  },
  {
    "name": "Oum Drou",
    "code_postal": 2033,
    "longitude": 1.3913824,
    "latitude": 36.1966757,
    "wilaya": 2
  },
  {
    "name": "Breira",
    "code_postal": 2034,
    "longitude": 1.6150342,
    "latitude": 36.4488016,
    "wilaya": 2
  },
  {
    "name": "Ben Boutaleb",
    "code_postal": 2035,
    "longitude": -0.357563,
    "latitude": 35.1915658,
    "wilaya": 2
  },
  {
    "name": "Laghouat",
    "code_postal": 3001,
    "longitude": 2.6431093610595155,
    "latitude": 33.750440499999996,
    "wilaya": 3
  },
  {
    "name": "Ksar El Hirane",
    "code_postal": 3002,
    "longitude": 3.1406529,
    "latitude": 33.787475,
    "wilaya": 3
  },
  {
    "name": "Benacer Ben Chohra",
    "code_postal": 3003,
    "longitude": 6.4421107,
    "latitude": 33.1105213,
    "wilaya": 3
  },
  {
    "name": "Sidi Makhlouf",
    "code_postal": 3004,
    "longitude": 3.019392,
    "latitude": 34.1308393,
    "wilaya": 3
  },
  {
    "name": "Hassi Delaa",
    "code_postal": 3005,
    "longitude": 3.5518967,
    "latitude": 33.4165651,
    "wilaya": 3
  },
  {
    "name": "Hassi R Mel",
    "code_postal": 3006,
    "longitude": 3.273666,
    "latitude": 32.9458855,
    "wilaya": 3
  },
  {
    "name": "Ain Mahdi",
    "code_postal": 3007,
    "longitude": 1.6669943,
    "latitude": 35.3533903,
    "wilaya": 3
  },
  {
    "name": "Tadjmout",
    "code_postal": 3008,
    "longitude": 2.5246794,
    "latitude": 33.8796356,
    "wilaya": 3
  },
  {
    "name": "Kheneg",
    "code_postal": 3009,
    "longitude": 2.7911348,
    "latitude": 33.7447402,
    "wilaya": 3
  },
  {
    "name": "Gueltat Sidi Saad",
    "code_postal": 3010,
    "longitude": 1.9474932,
    "latitude": 34.2974095,
    "wilaya": 3
  },
  {
    "name": "Ain Sidi Ali",
    "code_postal": 3011,
    "longitude": 1.5447944,
    "latitude": 34.1580172,
    "wilaya": 3
  },
  {
    "name": "Beidha",
    "code_postal": 3012,
    "longitude": 2.1757086,
    "latitude": 34.4735384,
    "wilaya": 3
  },
  {
    "name": "Brida",
    "code_postal": 3013,
    "longitude": 1.7837801,
    "latitude": 33.906785,
    "wilaya": 3
  },
  {
    "name": "El Ghicha",
    "code_postal": 3014,
    "longitude": 2.1395264291060987,
    "latitude": 33.87508875,
    "wilaya": 3
  },
  {
    "name": "Hadj Mechri",
    "code_postal": 3015,
    "longitude": 1.5460748413292649,
    "latitude": 33.9977205,
    "wilaya": 3
  },
  {
    "name": "Sebgag",
    "code_postal": 3016,
    "longitude": 1.9269747,
    "latitude": 34.0295796,
    "wilaya": 3
  },
  {
    "name": "Taouiala",
    "code_postal": 3017,
    "longitude": 1.8560849,
    "latitude": 33.8703247,
    "wilaya": 3
  },
  {
    "name": "Tadjrouna",
    "code_postal": 3018,
    "longitude": 2.1053512,
    "latitude": 33.5054035,
    "wilaya": 3
  },
  {
    "name": "Aflou",
    "code_postal": 3019,
    "longitude": 2.10029,
    "latitude": 34.11252,
    "wilaya": 3
  },
  {
    "name": "El Assafia",
    "code_postal": 3020,
    "longitude": 2.9897169,
    "latitude": 33.8249827,
    "wilaya": 3
  },
  {
    "name": "Oued Morra",
    "code_postal": 3021,
    "longitude": 2.3247059,
    "latitude": 34.1649241,
    "wilaya": 3
  },
  {
    "name": "Oued M Zi",
    "code_postal": 3022,
    "longitude": 2.4348727,
    "latitude": 33.9208548,
    "wilaya": 3
  },
  {
    "name": "El Haouaita",
    "code_postal": 3023,
    "longitude": 11.0116492,
    "latitude": 37.0498089,
    "wilaya": 3
  },
  {
    "name": "Sidi Bouzid",
    "code_postal": 3024,
    "longitude": 9.4865301,
    "latitude": 35.0382386,
    "wilaya": 3
  },
  {
    "name": "Oum El Bouaghi",
    "code_postal": 4001,
    "longitude": 7.1150645,
    "latitude": 35.8687758,
    "wilaya": 4
  },
  {
    "name": "Ain Beida",
    "code_postal": 4002,
    "longitude": 7.3894346,
    "latitude": 35.7952839,
    "wilaya": 4
  },
  {
    "name": "Ainmlila",
    "code_postal": 4003,
    "longitude": "3.04",
    "latitude": "30.7071885",
    "wilaya": 4
  },
  {
    "name": "Behir Chergui",
    "code_postal": 4004,
    "longitude": 7.7187909,
    "latitude": 35.7943152,
    "wilaya": 4
  },
  {
    "name": "El Amiria",
    "code_postal": 4005,
    "longitude": 5.540122,
    "latitude": 36.2910252,
    "wilaya": 4
  },
  {
    "name": "Sigus",
    "code_postal": 4006,
    "longitude": 6.7854947,
    "latitude": 36.1239401,
    "wilaya": 4
  },
  {
    "name": "El Belala",
    "code_postal": 4007,
    "longitude": 7.7889827,
    "latitude": 35.6647855,
    "wilaya": 4
  },
  {
    "name": "Ain Babouche",
    "code_postal": 4008,
    "longitude": 7.1874854,
    "latitude": 35.9422315,
    "wilaya": 4
  },
  {
    "name": "Berriche",
    "code_postal": 4009,
    "longitude": 7.3769813,
    "latitude": 35.917798,
    "wilaya": 4
  },
  {
    "name": "Ouled Hamla",
    "code_postal": 4010,
    "longitude": 6.4720919,
    "latitude": 36.0795998,
    "wilaya": 4
  },
  {
    "name": "Dhala",
    "code_postal": 4011,
    "longitude": 7.5500058,
    "latitude": 35.460285,
    "wilaya": 4
  },
  {
    "name": "Ain Kercha",
    "code_postal": 4012,
    "longitude": 6.7022898,
    "latitude": 35.9233662,
    "wilaya": 4
  },
  {
    "name": "Hanchir Toumghani",
    "code_postal": 4013,
    "longitude": 6.7412657,
    "latitude": 35.9346179,
    "wilaya": 4
  },
  {
    "name": "El Djazia",
    "code_postal": 4014,
    "longitude": 7.5081446,
    "latitude": 35.6631119,
    "wilaya": 4
  },
  {
    "name": "Ain Diss",
    "code_postal": 4015,
    "longitude": 7.0025522,
    "latitude": 36.0335736,
    "wilaya": 4
  },
  {
    "name": "Fkirina",
    "code_postal": 4016,
    "longitude": 7.2972243,
    "latitude": 35.6608817,
    "wilaya": 4
  },
  {
    "name": "Souk Naamane",
    "code_postal": 4017,
    "longitude": 6.3925749,
    "latitude": 35.8953079,
    "wilaya": 4
  },
  {
    "name": "Zorg",
    "code_postal": 4018,
    "longitude": 7.5367878,
    "latitude": 35.808679,
    "wilaya": 4
  },
  {
    "name": "El Fedjoudj Boughrar",
    "code_postal": 4019,
    "longitude": 6.8193521,
    "latitude": 35.7103668,
    "wilaya": 4
  },
  {
    "name": "Ouled Zouai",
    "code_postal": 4020,
    "longitude": 6.5114278,
    "latitude": 35.8402214,
    "wilaya": 4
  },
  {
    "name": "Bir Chouhada",
    "code_postal": 4021,
    "longitude": 6.2933546,
    "latitude": 35.895447,
    "wilaya": 4
  },
  {
    "name": "Ksar Sbahi",
    "code_postal": 4022,
    "longitude": 7.2581916,
    "latitude": 36.0815345,
    "wilaya": 4
  },
  {
    "name": "Oued Nini",
    "code_postal": 4023,
    "longitude": 7.3490145,
    "latitude": 35.5721271,
    "wilaya": 4
  },
  {
    "name": "Meskiana",
    "code_postal": 4024,
    "longitude": 7.6694143,
    "latitude": 35.6291407,
    "wilaya": 4
  },
  {
    "name": "Ain Fekroune",
    "code_postal": 4025,
    "longitude": 5.314708266022824,
    "latitude": 36.1874021,
    "wilaya": 4
  },
  {
    "name": "Rahia",
    "code_postal": 4026,
    "longitude": 7.6447871,
    "latitude": 35.7636048,
    "wilaya": 4
  },
  {
    "name": "Ain Zitoun",
    "code_postal": 4027,
    "longitude": 6.9357762,
    "latitude": 35.6841828,
    "wilaya": 4
  },
  {
    "name": "Ouled Gacem",
    "code_postal": 4028,
    "longitude": 6.6669826,
    "latitude": 36.0334488,
    "wilaya": 4
  },
  {
    "name": "El Harmilia",
    "code_postal": 4029,
    "longitude": 6.6223907,
    "latitude": 35.9250906,
    "wilaya": 4
  },
  {
    "name": "Batna",
    "code_postal": 5001,
    "longitude": 6.1767747,
    "latitude": 35.5544227,
    "wilaya": 5
  },
  {
    "name": "Ghassira",
    "code_postal": 5002,
    "longitude": 6.2228071,
    "latitude": 35.0970768,
    "wilaya": 5
  },
  {
    "name": "Maafa",
    "code_postal": 5003,
    "longitude": 5.9018467,
    "latitude": 35.2663121,
    "wilaya": 5
  },
  {
    "name": "Merouana",
    "code_postal": 5004,
    "longitude": 5.913138,
    "latitude": 35.6320555,
    "wilaya": 5
  },
  {
    "name": "Seriana",
    "code_postal": 5005,
    "longitude": 6.1850558,
    "latitude": 35.6925612,
    "wilaya": 5
  },
  {
    "name": "Menaa",
    "code_postal": 5006,
    "longitude": 6.0039939,
    "latitude": 35.1762498,
    "wilaya": 5
  },
  {
    "name": "El Madher",
    "code_postal": 5007,
    "longitude": 6.3706722,
    "latitude": 35.6258746,
    "wilaya": 5
  },
  {
    "name": "Tazoult",
    "code_postal": 5008,
    "longitude": 6.2536097,
    "latitude": 35.4860091,
    "wilaya": 5
  },
  {
    "name": "Ngaous",
    "code_postal": 5009,
    "longitude": 13.5877302,
    "latitude": 7.3211962,
    "wilaya": 5
  },
  {
    "name": "Guigba",
    "code_postal": 5010,
    "longitude": 5.5896477,
    "latitude": 35.7341561,
    "wilaya": 5
  },
  {
    "name": "Inoughissen",
    "code_postal": 5011,
    "longitude": 6.5483876,
    "latitude": 35.3049403,
    "wilaya": 5
  },
  {
    "name": "Ouyoun El Assafir",
    "code_postal": 5012,
    "longitude": 6.3083393,
    "latitude": 35.5556005,
    "wilaya": 5
  },
  {
    "name": "Djerma",
    "code_postal": 5013,
    "longitude": 6.3097241,
    "latitude": 35.6623355,
    "wilaya": 5
  },
  {
    "name": "Bitam",
    "code_postal": 5014,
    "longitude": 5.3740815,
    "latitude": 35.3077781,
    "wilaya": 5
  },
  {
    "name": "Metkaouak",
    "code_postal": 5015,
    "longitude": 5.014982583926091,
    "latitude": 35.323682500000004,
    "wilaya": 5
  },
  {
    "name": "Arris",
    "code_postal": 5016,
    "longitude": 6.3449818,
    "latitude": 35.258514,
    "wilaya": 5
  },
  {
    "name": "Kimmel",
    "code_postal": 5017,
    "longitude": 6.5449007,
    "latitude": 35.2166875,
    "wilaya": 5
  },
  {
    "name": "Tilatou",
    "code_postal": 5018,
    "longitude": 5.7931239,
    "latitude": 35.3292158,
    "wilaya": 5
  },
  {
    "name": "Ain Djasser",
    "code_postal": 5019,
    "longitude": 6.0012835,
    "latitude": 35.8596869,
    "wilaya": 5
  },
  {
    "name": "Ouled Selam",
    "code_postal": 5020,
    "longitude": 4.180727,
    "latitude": 36.062786,
    "wilaya": 5
  },
  {
    "name": "Tigherghar",
    "code_postal": 5021,
    "longitude": 5.979792503890864,
    "latitude": 35.077372,
    "wilaya": 5
  },
  {
    "name": "Ain Yagout",
    "code_postal": 5022,
    "longitude": 6.4176839,
    "latitude": 35.7761517,
    "wilaya": 5
  },
  {
    "name": "Fesdis",
    "code_postal": 5023,
    "longitude": 6.2464392,
    "latitude": 35.6181167,
    "wilaya": 5
  },
  {
    "name": "Sefiane",
    "code_postal": 5024,
    "longitude": 5.5597763,
    "latitude": 35.4379384,
    "wilaya": 5
  },
  {
    "name": "Rahbat",
    "code_postal": 5025,
    "longitude": 5.6562846,
    "latitude": 35.7128568,
    "wilaya": 5
  },
  {
    "name": "Tighanimine",
    "code_postal": 5026,
    "longitude": 6.249225011399553,
    "latitude": 35.185343149999994,
    "wilaya": 5
  },
  {
    "name": "Lemsane",
    "code_postal": 5027,
    "longitude": 5.7982758,
    "latitude": 35.6570774,
    "wilaya": 5
  },
  {
    "name": "Ksar Belezma",
    "code_postal": 5028,
    "longitude": 5.9021516,
    "latitude": 35.6762717,
    "wilaya": 5
  },
  {
    "name": "Seggana",
    "code_postal": 5029,
    "longitude": 5.5719001,
    "latitude": 35.3641602,
    "wilaya": 5
  },
  {
    "name": "Ichmoul",
    "code_postal": 5030,
    "longitude": 6.5100105,
    "latitude": 35.3095106,
    "wilaya": 5
  },
  {
    "name": "Foum Toub",
    "code_postal": 5031,
    "longitude": 6.5503509,
    "latitude": 35.404396,
    "wilaya": 5
  },
  {
    "name": "Beni Foudhala El Hakania",
    "code_postal": 5032,
    "longitude": 6.060750120110454,
    "latitude": 35.37815855,
    "wilaya": 5
  },
  {
    "name": "Oued El Ma",
    "code_postal": 5033,
    "longitude": 5.9953423,
    "latitude": 35.6448731,
    "wilaya": 5
  },
  {
    "name": "Talkhamt",
    "code_postal": 5034,
    "longitude": 5.7854012,
    "latitude": 35.6669798,
    "wilaya": 5
  },
  {
    "name": "Bouzina",
    "code_postal": 5035,
    "longitude": 6.0988647,
    "latitude": 35.2648362,
    "wilaya": 5
  },
  {
    "name": "Chemora",
    "code_postal": 5036,
    "longitude": 6.605611076510625,
    "latitude": 35.62988605,
    "wilaya": 5
  },
  {
    "name": "Oued Chaaba",
    "code_postal": 5037,
    "longitude": 6.077491,
    "latitude": 35.5051994,
    "wilaya": 5
  },
  {
    "name": "Taxlent",
    "code_postal": 5038,
    "longitude": 5.800679,
    "latitude": 35.6055933,
    "wilaya": 5
  },
  {
    "name": "Gosbat",
    "code_postal": 5039,
    "longitude": 5.4708520191807715,
    "latitude": 35.616384,
    "wilaya": 5
  },
  {
    "name": "Ouled Aouf",
    "code_postal": 5040,
    "longitude": 5.7564355,
    "latitude": 35.4554535,
    "wilaya": 5
  },
  {
    "name": "Boumagueur",
    "code_postal": 5041,
    "longitude": 5.5525246,
    "latitude": 35.5051588,
    "wilaya": 5
  },
  {
    "name": "Barika",
    "code_postal": 5042,
    "longitude": 5.3702215,
    "latitude": 35.3846699,
    "wilaya": 5
  },
  {
    "name": "Djezzar",
    "code_postal": 5043,
    "longitude": 5.2676704,
    "latitude": 35.5082551,
    "wilaya": 5
  },
  {
    "name": "Tkout",
    "code_postal": 5044,
    "longitude": 6.3085503,
    "latitude": 35.1403816,
    "wilaya": 5
  },
  {
    "name": "Ain Touta",
    "code_postal": 5045,
    "longitude": 5.894213,
    "latitude": 35.3752089,
    "wilaya": 5
  },
  {
    "name": "Hidoussa",
    "code_postal": 5046,
    "longitude": 5.9375835,
    "latitude": 35.5284609,
    "wilaya": 5
  },
  {
    "name": "Teniet El Abed",
    "code_postal": 5047,
    "longitude": 6.2012328,
    "latitude": 35.2550676,
    "wilaya": 5
  },
  {
    "name": "Oued Taga",
    "code_postal": 5048,
    "longitude": 6.4146079,
    "latitude": 35.4323373,
    "wilaya": 5
  },
  {
    "name": "Ouled Fadel",
    "code_postal": 5049,
    "longitude": 6.678508711285865,
    "latitude": 35.5558054,
    "wilaya": 5
  },
  {
    "name": "Timgad",
    "code_postal": 5050,
    "longitude": 6.466812074704006,
    "latitude": 35.483632799999995,
    "wilaya": 5
  },
  {
    "name": "Ras El Aioun",
    "code_postal": 5051,
    "longitude": 5.6515672,
    "latitude": 35.6758524,
    "wilaya": 5
  },
  {
    "name": "Chir",
    "code_postal": 5052,
    "longitude": 6.132079043846087,
    "latitude": 35.21794005,
    "wilaya": 5
  },
  {
    "name": "Ouled Si Slimane",
    "code_postal": 5053,
    "longitude": 5.6322042,
    "latitude": 35.61043,
    "wilaya": 5
  },
  {
    "name": "Zanat El Beida",
    "code_postal": 5054,
    "longitude": 3.2094611,
    "latitude": 36.7149768,
    "wilaya": 5
  },
  {
    "name": "Amdoukal",
    "code_postal": 5055,
    "longitude": 20.2784833,
    "latitude": 11.2318667,
    "wilaya": 5
  },
  {
    "name": "Ouled Ammar",
    "code_postal": 5056,
    "longitude": 5.1560233,
    "latitude": 35.4622558,
    "wilaya": 5
  },
  {
    "name": "El Hassi",
    "code_postal": 5057,
    "longitude": 1.0178037,
    "latitude": 35.7333267,
    "wilaya": 5
  },
  {
    "name": "Lazrou",
    "code_postal": 5058,
    "longitude": 6.225302,
    "latitude": 35.8073846,
    "wilaya": 5
  },
  {
    "name": "Boumia",
    "code_postal": 5059,
    "longitude": 6.4820804,
    "latitude": 35.6775992,
    "wilaya": 5
  },
  {
    "name": "Boulhilat",
    "code_postal": 5060,
    "longitude": 6.6614943,
    "latitude": 35.724751,
    "wilaya": 5
  },
  {
    "name": "Larbaa",
    "code_postal": 5061,
    "longitude": 3.155972,
    "latitude": 36.5628414,
    "wilaya": 5
  },
  {
    "name": "Bejaia",
    "code_postal": 6001,
    "longitude": 5.0643687,
    "latitude": 36.7511783,
    "wilaya": 6
  },
  {
    "name": "Amizour",
    "code_postal": 6002,
    "longitude": 4.9036535,
    "latitude": 36.6439022,
    "wilaya": 6
  },
  {
    "name": "Ferraoun",
    "code_postal": 6003,
    "longitude": -1.140132706182953,
    "latitude": 35.294921849999994,
    "wilaya": 6
  },
  {
    "name": "Taourirt Ighil",
    "code_postal": 6004,
    "longitude": 4.6977077,
    "latitude": 36.6995991,
    "wilaya": 6
  },
  {
    "name": "Chelata",
    "code_postal": 6005,
    "longitude": -151.4065473,
    "latitude": 62.4341713,
    "wilaya": 6
  },
  {
    "name": "Tamokra",
    "code_postal": 6006,
    "longitude": 4.6671349,
    "latitude": 36.3980867,
    "wilaya": 6
  },
  {
    "name": "Timzrit",
    "code_postal": 6007,
    "longitude": 4.768324466329347,
    "latitude": 36.615573600000005,
    "wilaya": 6
  },
  {
    "name": "Souk El Thenine",
    "code_postal": 6008,
    "longitude": 5.3365523,
    "latitude": 36.6251894,
    "wilaya": 6
  },
  {
    "name": "Mcisna",
    "code_postal": 6009,
    "longitude": -57.0141264,
    "latitude": 49.3369475,
    "wilaya": 6
  },
  {
    "name": "Thinabdher",
    "code_postal": 6010,
    "longitude": "3.04",
    "latitude": "30.7071885",
    "wilaya": 6
  },
  {
    "name": "Tichi",
    "code_postal": 6011,
    "longitude": 77.0956349,
    "latitude": 31.8711071,
    "wilaya": 6
  },
  {
    "name": "Semaoun",
    "code_postal": 6012,
    "longitude": 4.8224282,
    "latitude": 36.6084692,
    "wilaya": 6
  },
  {
    "name": "Kendira",
    "code_postal": 6013,
    "longitude": 5.021587422616995,
    "latitude": 36.557728,
    "wilaya": 6
  },
  {
    "name": "Tifra",
    "code_postal": 6014,
    "longitude": 23.692884,
    "latitude": 46.257702,
    "wilaya": 6
  },
  {
    "name": "Ighram",
    "code_postal": 6015,
    "longitude": 4.5042534,
    "latitude": 36.4622509,
    "wilaya": 6
  },
  {
    "name": "Amalou",
    "code_postal": 6016,
    "longitude": 4.63266,
    "latitude": 36.4774607,
    "wilaya": 6
  },
  {
    "name": "Ighil Ali",
    "code_postal": 6017,
    "longitude": 4.470196,
    "latitude": 36.3378593,
    "wilaya": 6
  },
  {
    "name": "Ifelain Ilmathen",
    "code_postal": 6018,
    "longitude": "3.04",
    "latitude": "30.7071885",
    "wilaya": 6
  },
  {
    "name": "Toudja",
    "code_postal": 6019,
    "longitude": 4.8971215,
    "latitude": 36.7525317,
    "wilaya": 6
  },
  {
    "name": "Darguina",
    "code_postal": 6020,
    "longitude": 5.3063118,
    "latitude": 36.564307,
    "wilaya": 6
  },
  {
    "name": "Sidi Ayad",
    "code_postal": 6021,
    "longitude": 4.7151737,
    "latitude": 36.6119158,
    "wilaya": 6
  },
  {
    "name": "Aokas",
    "code_postal": 6022,
    "longitude": 5.2453122,
    "latitude": 36.6376518,
    "wilaya": 6
  },
  {
    "name": "Beni Djellil",
    "code_postal": 6023,
    "longitude": 5.5533470000000005,
    "latitude": 36.280316,
    "wilaya": 6
  },
  {
    "name": "Adekar",
    "code_postal": 6024,
    "longitude": 4.70832077612827,
    "latitude": 36.7856316,
    "wilaya": 6
  },
  {
    "name": "Akbou",
    "code_postal": 6025,
    "longitude": 4.5289243,
    "latitude": 36.4597538,
    "wilaya": 6
  },
  {
    "name": "Seddouk",
    "code_postal": 6026,
    "longitude": 4.6894642,
    "latitude": 36.5472337,
    "wilaya": 6
  },
  {
    "name": "Tazmalt",
    "code_postal": 6027,
    "longitude": 4.4000106,
    "latitude": 36.3885111,
    "wilaya": 6
  },
  {
    "name": "Ait Rizine",
    "code_postal": 6028,
    "longitude": 35.6473181,
    "latitude": 33.959664,
    "wilaya": 6
  },
  {
    "name": "Chemini",
    "code_postal": 6029,
    "longitude": 4.6210413,
    "latitude": 36.5944018,
    "wilaya": 6
  },
  {
    "name": "Souk Oufella",
    "code_postal": 6030,
    "longitude": 4.6382952,
    "latitude": 36.6054725,
    "wilaya": 6
  },
  {
    "name": "Taskriout",
    "code_postal": 6031,
    "longitude": 5.279911166731502,
    "latitude": 36.555858650000005,
    "wilaya": 6
  },
  {
    "name": "Tibane",
    "code_postal": 6032,
    "longitude": 4.652600972189841,
    "latitude": 36.6135798,
    "wilaya": 6
  },
  {
    "name": "Tala Hamza",
    "code_postal": 6033,
    "longitude": 5.0394177,
    "latitude": 36.7029253,
    "wilaya": 6
  },
  {
    "name": "Barbacha",
    "code_postal": 6034,
    "longitude": 4.9693825,
    "latitude": 36.5734726,
    "wilaya": 6
  },
  {
    "name": "Beni Ksila",
    "code_postal": 6035,
    "longitude": 4.6643892,
    "latitude": 36.881989,
    "wilaya": 6
  },
  {
    "name": "Ouzallaguen",
    "code_postal": 6036,
    "longitude": 4.57669837154741,
    "latitude": 36.54785245,
    "wilaya": 6
  },
  {
    "name": "Bouhamza",
    "code_postal": 6037,
    "longitude": 4.6199596,
    "latitude": 36.2347178,
    "wilaya": 6
  },
  {
    "name": "Beni Melikeche",
    "code_postal": 6038,
    "longitude": 4.410226621551889,
    "latitude": 36.4471796,
    "wilaya": 6
  },
  {
    "name": "Sidi Aich",
    "code_postal": 6039,
    "longitude": 4.6913091,
    "latitude": 36.6127914,
    "wilaya": 6
  },
  {
    "name": "El Kseur",
    "code_postal": 6040,
    "longitude": 4.8523757,
    "latitude": 36.6794351,
    "wilaya": 6
  },
  {
    "name": "Melbou",
    "code_postal": 6041,
    "longitude": 144.9631732,
    "latitude": -37.8142454,
    "wilaya": 6
  },
  {
    "name": "Akfadou",
    "code_postal": 6042,
    "longitude": 4.606816543873892,
    "latitude": 36.6578395,
    "wilaya": 6
  },
  {
    "name": "Leflaye",
    "code_postal": 6043,
    "longitude": 4.6713413,
    "latitude": 36.6090456,
    "wilaya": 6
  },
  {
    "name": "Kherrata",
    "code_postal": 6044,
    "longitude": 5.254379890609391,
    "latitude": 36.44549,
    "wilaya": 6
  },
  {
    "name": "Draa Kaid",
    "code_postal": 6045,
    "longitude": 5.236533021934618,
    "latitude": 36.44017425,
    "wilaya": 6
  },
  {
    "name": "Tamridjet",
    "code_postal": 6046,
    "longitude": 5.3746744,
    "latitude": 36.5721683,
    "wilaya": 6
  },
  {
    "name": "Ait Smail",
    "code_postal": 6047,
    "longitude": 5.229730086832058,
    "latitude": 36.55364615,
    "wilaya": 6
  },
  {
    "name": "Boukhelifa",
    "code_postal": 6048,
    "longitude": 5.07497076960119,
    "latitude": 36.6368914,
    "wilaya": 6
  },
  {
    "name": "Tizi Nberber",
    "code_postal": 6049,
    "longitude": "3.04",
    "latitude": "30.7071885",
    "wilaya": 6
  },
  {
    "name": "Beni Maouch",
    "code_postal": 6050,
    "longitude": 4.787491935816165,
    "latitude": 36.487699,
    "wilaya": 6
  },
  {
    "name": "Oued Ghir",
    "code_postal": 6051,
    "longitude": 4.9782915,
    "latitude": 36.7106296,
    "wilaya": 6
  },
  {
    "name": "Boudjellil",
    "code_postal": 6052,
    "longitude": 4.4141916,
    "latitude": 36.3498654,
    "wilaya": 6
  },
  {
    "name": "Biskra",
    "code_postal": 7001,
    "longitude": 5.7286878,
    "latitude": 34.8508508,
    "wilaya": 7
  },
  {
    "name": "Oumache",
    "code_postal": 7002,
    "longitude": 5.6991395,
    "latitude": 34.6952035,
    "wilaya": 7
  },
  {
    "name": "Branis",
    "code_postal": 7003,
    "longitude": 5.772251,
    "latitude": 34.9947631,
    "wilaya": 7
  },
  {
    "name": "Chetma",
    "code_postal": 7004,
    "longitude": 5.7939424,
    "latitude": 34.8447307,
    "wilaya": 7
  },
  {
    "name": "Ouled Djellal",
    "code_postal": 7005,
    "longitude": 4.820300902475401,
    "latitude": 34.104904000000005,
    "wilaya": 7
  },
  {
    "name": "Ras El Miaad",
    "code_postal": 7006,
    "longitude": 4.4510462,
    "latitude": 34.1838961,
    "wilaya": 7
  },
  {
    "name": "Besbes",
    "code_postal": 7007,
    "longitude": 7.8454765,
    "latitude": 36.7008806,
    "wilaya": 7
  },
  {
    "name": "Sidi Khaled",
    "code_postal": 7008,
    "longitude": 5.0005177,
    "latitude": 34.3915907,
    "wilaya": 7
  },
  {
    "name": "Doucen",
    "code_postal": 7009,
    "longitude": 5.1029298,
    "latitude": 34.5975449,
    "wilaya": 7
  },
  {
    "name": "Ech Chaiba",
    "code_postal": 7010,
    "longitude": -6.554063,
    "latitude": 16.766117,
    "wilaya": 7
  },
  {
    "name": "Sidi Okba",
    "code_postal": 7011,
    "longitude": 5.9107849,
    "latitude": 34.7497613,
    "wilaya": 7
  },
  {
    "name": "Mchouneche",
    "code_postal": 7012,
    "longitude": 5.9933227,
    "latitude": 34.9458031,
    "wilaya": 7
  },
  {
    "name": "El Haouch",
    "code_postal": 7013,
    "longitude": 6.0539985,
    "latitude": 34.5599173,
    "wilaya": 7
  },
  {
    "name": "Ain Naga",
    "code_postal": 7014,
    "longitude": 6.0862228,
    "latitude": 34.6909245,
    "wilaya": 7
  },
  {
    "name": "Zeribet El Oued",
    "code_postal": 7015,
    "longitude": 6.5047333,
    "latitude": 34.6830199,
    "wilaya": 7
  },
  {
    "name": "El Feidh",
    "code_postal": 7016,
    "longitude": 6.5240845,
    "latitude": 34.523707,
    "wilaya": 7
  },
  {
    "name": "El Kantara",
    "code_postal": 7017,
    "longitude": 5.7092844,
    "latitude": 35.2231152,
    "wilaya": 7
  },
  {
    "name": "Ain Zaatout",
    "code_postal": 7018,
    "longitude": 5.8373678,
    "latitude": 35.146374,
    "wilaya": 7
  },
  {
    "name": "El Outaya",
    "code_postal": 7019,
    "longitude": 5.58955,
    "latitude": 35.0345657,
    "wilaya": 7
  },
  {
    "name": "Djemorah",
    "code_postal": 7020,
    "longitude": 5.8448638,
    "latitude": 35.0689799,
    "wilaya": 7
  },
  {
    "name": "Tolga",
    "code_postal": 7021,
    "longitude": 5.3830752,
    "latitude": 34.73212,
    "wilaya": 7
  },
  {
    "name": "Lioua",
    "code_postal": 7022,
    "longitude": 5.4009134,
    "latitude": 34.6392137,
    "wilaya": 7
  },
  {
    "name": "Lichana",
    "code_postal": 7023,
    "longitude": 5.4356505,
    "latitude": 34.7251766,
    "wilaya": 7
  },
  {
    "name": "Ourlal",
    "code_postal": 7024,
    "longitude": 5.5120852,
    "latitude": 34.6562915,
    "wilaya": 7
  },
  {
    "name": "Mlili",
    "code_postal": 7025,
    "longitude": -1.3859958,
    "latitude": 34.9197675,
    "wilaya": 7
  },
  {
    "name": "Foughala",
    "code_postal": 7026,
    "longitude": 5.3260042,
    "latitude": 34.7309552,
    "wilaya": 7
  },
  {
    "name": "Bordj Ben Azzouz",
    "code_postal": 7027,
    "longitude": 5.3612562,
    "latitude": 34.6957162,
    "wilaya": 7
  },
  {
    "name": "Meziraa",
    "code_postal": 7028,
    "longitude": 8.620804241666665,
    "latitude": 35.292845,
    "wilaya": 7
  },
  {
    "name": "Bouchagroun",
    "code_postal": 7029,
    "longitude": 5.4677965,
    "latitude": 34.7206559,
    "wilaya": 7
  },
  {
    "name": "Mekhadma",
    "code_postal": 7030,
    "longitude": 5.4612954586524225,
    "latitude": 34.5644591,
    "wilaya": 7
  },
  {
    "name": "El Ghrous",
    "code_postal": 7031,
    "longitude": 5.2854921,
    "latitude": 34.7054162,
    "wilaya": 7
  },
  {
    "name": "El Hadjab",
    "code_postal": 7032,
    "longitude": 7.7367133,
    "latitude": 36.8074799,
    "wilaya": 7
  },
  {
    "name": "Khanguet Sidinadji",
    "code_postal": 7033,
    "longitude": "3.04",
    "latitude": "30.7071885",
    "wilaya": 7
  },
  {
    "name": "Bechar",
    "code_postal": 8001,
    "longitude": -2.2180053,
    "latitude": 31.6165355,
    "wilaya": 8
  },
  {
    "name": "Erg Ferradj",
    "code_postal": 8002,
    "longitude": -2.7896737,
    "latitude": 31.035729,
    "wilaya": 8
  },
  {
    "name": "Ouled Khoudir",
    "code_postal": 8003,
    "longitude": -1.0596458,
    "latitude": 29.2565086,
    "wilaya": 8
  },
  {
    "name": "Meridja",
    "code_postal": 8004,
    "longitude": -2.9473825,
    "latitude": 31.5491648,
    "wilaya": 8
  },
  {
    "name": "Timoudi",
    "code_postal": 8005,
    "longitude": -1.1288101,
    "latitude": 29.321336,
    "wilaya": 8
  },
  {
    "name": "Lahmar",
    "code_postal": 8006,
    "longitude": -2.2593871,
    "latitude": 31.9326993,
    "wilaya": 8
  },
  {
    "name": "Beni Abbes",
    "code_postal": 8007,
    "longitude": -2.65900601043017,
    "latitude": 29.083202,
    "wilaya": 8
  },
  {
    "name": "Beni Ikhlef",
    "code_postal": 8008,
    "longitude": -1.6096867,
    "latitude": 29.575025,
    "wilaya": 8
  },
  {
    "name": "Mechraa Houari B",
    "code_postal": 8009,
    "longitude": -2.7375766,
    "latitude": 30.9320605,
    "wilaya": 8
  },
  {
    "name": "Kenedsa",
    "code_postal": 8010,
    "longitude": -2.432661,
    "latitude": 31.5545321,
    "wilaya": 8
  },
  {
    "name": "Igli",
    "code_postal": 8011,
    "longitude": -2.2908264,
    "latitude": 30.4528493,
    "wilaya": 8
  },
  {
    "name": "Tabalbala",
    "code_postal": 8012,
    "longitude": -3.2553664,
    "latitude": 29.4054154,
    "wilaya": 8
  },
  {
    "name": "Taghit",
    "code_postal": 8013,
    "longitude": -2.0294754,
    "latitude": 30.9170611,
    "wilaya": 8
  },
  {
    "name": "El Ouata",
    "code_postal": 8014,
    "longitude": -4.779635408194224,
    "latitude": 33.871752400000005,
    "wilaya": 8
  },
  {
    "name": "Boukais",
    "code_postal": 8015,
    "longitude": -2.4678608,
    "latitude": 31.9244504,
    "wilaya": 8
  },
  {
    "name": "Mogheul",
    "code_postal": 8016,
    "longitude": -2.2182475,
    "latitude": 32.0233478,
    "wilaya": 8
  },
  {
    "name": "Abadla",
    "code_postal": 8017,
    "longitude": -2.7104418,
    "latitude": 31.0274839,
    "wilaya": 8
  },
  {
    "name": "Kerzaz",
    "code_postal": 8018,
    "longitude": -1.4165298,
    "latitude": 29.4516146,
    "wilaya": 8
  },
  {
    "name": "Ksabi",
    "code_postal": 8019,
    "longitude": -0.9856597,
    "latitude": 29.1270304,
    "wilaya": 8
  },
  {
    "name": "Tamtert",
    "code_postal": 8020,
    "longitude": -1.8894569,
    "latitude": 29.9091728,
    "wilaya": 8
  },
  {
    "name": "Beni Ounif",
    "code_postal": 8021,
    "longitude": -1.2486808,
    "latitude": 32.0501891,
    "wilaya": 8
  },
  {
    "name": "Blida",
    "code_postal": 9001,
    "longitude": 2.8274937,
    "latitude": 36.4705658,
    "wilaya": 9
  },
  {
    "name": "Chebli",
    "code_postal": 9002,
    "longitude": 3.0090176,
    "latitude": 36.5774573,
    "wilaya": 9
  },
  {
    "name": "Bouinan",
    "code_postal": 9003,
    "longitude": 2.9918496,
    "latitude": 36.5322102,
    "wilaya": 9
  },
  {
    "name": "Oued El Alleug",
    "code_postal": 9004,
    "longitude": 2.7896358,
    "latitude": 36.5558374,
    "wilaya": 9
  },
  {
    "name": "Ouled Yaich",
    "code_postal": 9007,
    "longitude": 2.8610493,
    "latitude": 36.4970451,
    "wilaya": 9
  },
  {
    "name": "Chrea",
    "code_postal": 9008,
    "longitude": 2.8862034,
    "latitude": 36.4304986,
    "wilaya": 9
  },
  {
    "name": "El Affroun",
    "code_postal": 9010,
    "longitude": 2.6267421,
    "latitude": 36.46975,
    "wilaya": 9
  },
  {
    "name": "Chiffa",
    "code_postal": 9011,
    "longitude": 2.7409097,
    "latitude": 36.4622287,
    "wilaya": 9
  },
  {
    "name": "Hammam Melouane",
    "code_postal": 9012,
    "longitude": 3.0446077,
    "latitude": 36.4869259,
    "wilaya": 9
  },
  {
    "name": "Ben Khlil",
    "code_postal": 9013,
    "longitude": -11.1659736,
    "latitude": 28.467259,
    "wilaya": 9
  },
  {
    "name": "Soumaa",
    "code_postal": 9014,
    "longitude": 2.9084853,
    "latitude": 36.5184909,
    "wilaya": 9
  },
  {
    "name": "Mouzaia",
    "code_postal": 9016,
    "longitude": 2.6879953,
    "latitude": 36.4674416,
    "wilaya": 9
  },
  {
    "name": "Souhane",
    "code_postal": 9017,
    "longitude": 3.2376389,
    "latitude": 36.5065702,
    "wilaya": 9
  },
  {
    "name": "Meftah",
    "code_postal": 9018,
    "longitude": 3.2228135,
    "latitude": 36.6201923,
    "wilaya": 9
  },
  {
    "name": "Ouled Selama",
    "code_postal": 9019,
    "longitude": 4.180727,
    "latitude": 36.062786,
    "wilaya": 9
  },
  {
    "name": "Boufarik",
    "code_postal": 9020,
    "longitude": 2.9128963,
    "latitude": 36.5755523,
    "wilaya": 9
  },
  {
    "name": "Larbaa",
    "code_postal": 9021,
    "longitude": 3.155972,
    "latitude": 36.5628414,
    "wilaya": 9
  },
  {
    "name": "Oued Djer",
    "code_postal": 9022,
    "longitude": 2.5605348,
    "latitude": 36.4268459,
    "wilaya": 9
  },
  {
    "name": "Beni Tamou",
    "code_postal": 9023,
    "longitude": 2.8206529,
    "latitude": 36.5374705,
    "wilaya": 9
  },
  {
    "name": "Bouarfa",
    "code_postal": 9024,
    "longitude": 2.8126394,
    "latitude": 36.4638905,
    "wilaya": 9
  },
  {
    "name": "Beni Mered",
    "code_postal": 9025,
    "longitude": 2.8616102,
    "latitude": 36.523526,
    "wilaya": 9
  },
  {
    "name": "Bougara",
    "code_postal": 9026,
    "longitude": 3.0869346,
    "latitude": 36.5448652,
    "wilaya": 9
  },
  {
    "name": "Guerrouaou",
    "code_postal": 9027,
    "longitude": 2.886115,
    "latitude": 36.5264595,
    "wilaya": 9
  },
  {
    "name": "Ain Romana",
    "code_postal": 9028,
    "longitude": 2.6913929,
    "latitude": 36.4062394,
    "wilaya": 9
  },
  {
    "name": "Djebabra",
    "code_postal": 9029,
    "longitude": 3.2688001,
    "latitude": 36.5830087,
    "wilaya": 9
  },
  {
    "name": "Bouira",
    "code_postal": 10001,
    "longitude": 3.9007007,
    "latitude": 36.3739012,
    "wilaya": 10
  },
  {
    "name": "El Asnam",
    "code_postal": 10002,
    "longitude": 4.0130501,
    "latitude": 36.3212726,
    "wilaya": 10
  },
  {
    "name": "Guerrouma",
    "code_postal": 10003,
    "longitude": 3.4277272,
    "latitude": 36.4326797,
    "wilaya": 10
  },
  {
    "name": "Souk El Khemis",
    "code_postal": 10004,
    "longitude": 3.631778,
    "latitude": 36.3912273,
    "wilaya": 10
  },
  {
    "name": "Kadiria",
    "code_postal": 10005,
    "longitude": 3.6788401,
    "latitude": 36.5354385,
    "wilaya": 10
  },
  {
    "name": "Hanif",
    "code_postal": 10006,
    "longitude": 71.8776327,
    "latitude": 31.9074312,
    "wilaya": 10
  },
  {
    "name": "Dirah",
    "code_postal": 10007,
    "longitude": 3.7215177116452995,
    "latitude": 36.0022631,
    "wilaya": 10
  },
  {
    "name": "Ait Laaziz",
    "code_postal": 10008,
    "longitude": 3.880785125690098,
    "latitude": 36.4445645,
    "wilaya": 10
  },
  {
    "name": "Taghzout",
    "code_postal": 10009,
    "longitude": 6.7998514,
    "latitude": 33.4754769,
    "wilaya": 10
  },
  {
    "name": "Raouraoua",
    "code_postal": 10010,
    "longitude": 3.6463352,
    "latitude": 36.2362601,
    "wilaya": 10
  },
  {
    "name": "Mezdour",
    "code_postal": 10011,
    "longitude": 4.056264951746921,
    "latitude": 36.0680635,
    "wilaya": 10
  },
  {
    "name": "Haizer",
    "code_postal": 10012,
    "longitude": 3.9994448,
    "latitude": 36.3979925,
    "wilaya": 10
  },
  {
    "name": "Lakhdaria",
    "code_postal": 10013,
    "longitude": 3.5967523,
    "latitude": 36.5644827,
    "wilaya": 10
  },
  {
    "name": "Maala",
    "code_postal": 10014,
    "longitude": 3.5892338505996517,
    "latitude": 36.4943805,
    "wilaya": 10
  },
  {
    "name": "El Hachimia",
    "code_postal": 10015,
    "longitude": 3.814284812772107,
    "latitude": 36.2225033,
    "wilaya": 10
  },
  {
    "name": "Aomar",
    "code_postal": 10016,
    "longitude": 3.7711939,
    "latitude": 36.492393,
    "wilaya": 10
  },
  {
    "name": "Chorfa",
    "code_postal": 10017,
    "longitude": -0.2462883,
    "latitude": 35.4306621,
    "wilaya": 10
  },
  {
    "name": "Bordj Oukhriss",
    "code_postal": 10018,
    "longitude": 3.9107303345525466,
    "latitude": 36.0932471,
    "wilaya": 10
  },
  {
    "name": "El Adjiba",
    "code_postal": 10019,
    "longitude": 4.1586858,
    "latitude": 36.3293456,
    "wilaya": 10
  },
  {
    "name": "El Hakimia",
    "code_postal": 10020,
    "longitude": 3.7804959,
    "latitude": 36.0911365,
    "wilaya": 10
  },
  {
    "name": "El Khebouzia",
    "code_postal": 10021,
    "longitude": 3.597167897222222,
    "latitude": 36.309078,
    "wilaya": 10
  },
  {
    "name": "Ahl El Ksar",
    "code_postal": 10022,
    "longitude": 4.0414067,
    "latitude": 36.2528069,
    "wilaya": 10
  },
  {
    "name": "Bouderbala",
    "code_postal": 10023,
    "longitude": 3.5099986,
    "latitude": 36.5808208,
    "wilaya": 10
  },
  {
    "name": "Zbarbar",
    "code_postal": 10024,
    "longitude": 3.513905013682527,
    "latitude": 36.4726655,
    "wilaya": 10
  },
  {
    "name": "Ain El Hadjar",
    "code_postal": 10025,
    "longitude": 3.8095209,
    "latitude": 36.3402284,
    "wilaya": 10
  },
  {
    "name": "Djebahia",
    "code_postal": 10026,
    "longitude": 3.758111,
    "latitude": 36.4768208,
    "wilaya": 10
  },
  {
    "name": "Aghbalou",
    "code_postal": 10027,
    "longitude": 4.352645961469533,
    "latitude": 36.427009,
    "wilaya": 10
  },
  {
    "name": "Taguedit",
    "code_postal": 10028,
    "longitude": 3.9898176,
    "latitude": 36.0192193,
    "wilaya": 10
  },
  {
    "name": "Ain Turk",
    "code_postal": 10029,
    "longitude": -0.7539496,
    "latitude": 35.7400353,
    "wilaya": 10
  },
  {
    "name": "Saharidj",
    "code_postal": 10030,
    "longitude": 4.2482336,
    "latitude": 36.3974847,
    "wilaya": 10
  },
  {
    "name": "Dechmia",
    "code_postal": 10031,
    "longitude": 3.5765765,
    "latitude": 36.1304762,
    "wilaya": 10
  },
  {
    "name": "Ridane",
    "code_postal": 10032,
    "longitude": 3.4620784,
    "latitude": 36.0738879,
    "wilaya": 10
  },
  {
    "name": "Bechloul",
    "code_postal": 10033,
    "longitude": 4.0749566,
    "latitude": 36.312195,
    "wilaya": 10
  },
  {
    "name": "Boukram",
    "code_postal": 10034,
    "longitude": 3.3971591,
    "latitude": 36.5416035,
    "wilaya": 10
  },
  {
    "name": "Ain Bessam",
    "code_postal": 10035,
    "longitude": 3.6735417,
    "latitude": 36.2929113,
    "wilaya": 10
  },
  {
    "name": "Bir Ghbalou",
    "code_postal": 10036,
    "longitude": 3.5850113,
    "latitude": 36.2628812,
    "wilaya": 10
  },
  {
    "name": "Mchedallah",
    "code_postal": 10037,
    "longitude": 4.27078360575944,
    "latitude": 36.36126605,
    "wilaya": 10
  },
  {
    "name": "Sour El Ghozlane",
    "code_postal": 10038,
    "longitude": 3.691797,
    "latitude": 36.147376,
    "wilaya": 10
  },
  {
    "name": "Maamora",
    "code_postal": 10039,
    "longitude": 0.4999708,
    "latitude": 34.6809223,
    "wilaya": 10
  },
  {
    "name": "Ouled Rached",
    "code_postal": 10040,
    "longitude": 4.116772506213817,
    "latitude": 36.203503,
    "wilaya": 10
  },
  {
    "name": "Ain Laloui",
    "code_postal": 10041,
    "longitude": 3.7485441,
    "latitude": 36.3208019,
    "wilaya": 10
  },
  {
    "name": "Hadjera Zerga",
    "code_postal": 10042,
    "longitude": 3.8497977,
    "latitude": 35.9575511,
    "wilaya": 10
  },
  {
    "name": "Ath Mansour",
    "code_postal": 10043,
    "longitude": 4.3172601,
    "latitude": 36.3278259,
    "wilaya": 10
  },
  {
    "name": "El Mokrani",
    "code_postal": 10044,
    "longitude": 3.6121625,
    "latitude": 36.4244079,
    "wilaya": 10
  },
  {
    "name": "Oued El Berdi",
    "code_postal": 10045,
    "longitude": 3.9180743,
    "latitude": 36.2885851,
    "wilaya": 10
  },
  {
    "name": "Tamanghasset",
    "code_postal": 11001,
    "longitude": 5.9629891,
    "latitude": 22.8677185,
    "wilaya": 11
  },
  {
    "name": "Abalessa",
    "code_postal": 11002,
    "longitude": 4.8469931,
    "latitude": 22.8895834,
    "wilaya": 11
  },
  {
    "name": "In Ghar",
    "code_postal": 11003,
    "longitude": 1.9065264,
    "latitude": 27.1018319,
    "wilaya": 11
  },
  {
    "name": "In Guezzam",
    "code_postal": 11004,
    "longitude": 4.6766309838048326,
    "latitude": 20.427529999999997,
    "wilaya": 11
  },
  {
    "name": "Idles",
    "code_postal": 11005,
    "longitude": 5.935768,
    "latitude": 23.8204317,
    "wilaya": 11
  },
  {
    "name": "Tazouk",
    "code_postal": 11006,
    "longitude": 7.2706949,
    "latitude": 13.55601,
    "wilaya": 11
  },
  {
    "name": "Tinzaouatine",
    "code_postal": 11007,
    "longitude": 2.9694782,
    "latitude": 19.9541906,
    "wilaya": 11
  },
  {
    "name": "In Salah",
    "code_postal": 11008,
    "longitude": 3.5212375793144277,
    "latitude": 27.197705499999998,
    "wilaya": 11
  },
  {
    "name": "In Amguel",
    "code_postal": 11009,
    "longitude": 5.1509434,
    "latitude": 23.6909837,
    "wilaya": 11
  },
  {
    "name": "Foggaret Ezzaouia",
    "code_postal": 11010,
    "longitude": 2.8488652,
    "latitude": 27.3587307,
    "wilaya": 11
  },
  {
    "name": "Tebessa",
    "code_postal": 12001,
    "longitude": 7.901173504229375,
    "latitude": 35.124945,
    "wilaya": 12
  },
  {
    "name": "Bir El Ater",
    "code_postal": 12002,
    "longitude": 8.0584012,
    "latitude": 34.7441882,
    "wilaya": 12
  },
  {
    "name": "Cheria",
    "code_postal": 12003,
    "longitude": 7.7527115,
    "latitude": 35.2706778,
    "wilaya": 12
  },
  {
    "name": "Stah Guentis",
    "code_postal": 12004,
    "longitude": 7.3078332,
    "latitude": 34.9987136,
    "wilaya": 12
  },
  {
    "name": "El Aouinet",
    "code_postal": 12005,
    "longitude": 7.8888473,
    "latitude": 35.8628373,
    "wilaya": 12
  },
  {
    "name": "Lahouidjbet",
    "code_postal": 12006,
    "longitude": 8.28007369141051,
    "latitude": 35.2922499,
    "wilaya": 12
  },
  {
    "name": "Safsaf El Ouesra",
    "code_postal": 12007,
    "longitude": 8.2071255,
    "latitude": 34.9564825,
    "wilaya": 12
  },
  {
    "name": "Hammamet",
    "code_postal": 12008,
    "longitude": 2.9712554,
    "latitude": 36.8137612,
    "wilaya": 12
  },
  {
    "name": "Negrine",
    "code_postal": 12009,
    "longitude": 7.5219594,
    "latitude": 34.4855133,
    "wilaya": 12
  },
  {
    "name": "Bir El Mokadem",
    "code_postal": 12010,
    "longitude": 7.8838391,
    "latitude": 35.4018907,
    "wilaya": 12
  },
  {
    "name": "El Kouif",
    "code_postal": 12011,
    "longitude": 8.321967,
    "latitude": 35.500823,
    "wilaya": 12
  },
  {
    "name": "Morsott",
    "code_postal": 12012,
    "longitude": 8.0102728,
    "latitude": 35.6717654,
    "wilaya": 12
  },
  {
    "name": "El Ogla",
    "code_postal": 12013,
    "longitude": 7.4688516,
    "latitude": 35.1887497,
    "wilaya": 12
  },
  {
    "name": "Bir Dheheb",
    "code_postal": 12014,
    "longitude": 7.9395054,
    "latitude": 35.5245771,
    "wilaya": 12
  },
  {
    "name": "El Ogla El Malha",
    "code_postal": 12015,
    "longitude": 7.9413937,
    "latitude": 34.9915072,
    "wilaya": 12
  },
  {
    "name": "Gorriguer",
    "code_postal": 12016,
    "longitude": 79.5764637,
    "latitude": 19.2750329,
    "wilaya": 12
  },
  {
    "name": "Bekkaria",
    "code_postal": 12017,
    "longitude": 8.2407034,
    "latitude": 35.3746584,
    "wilaya": 12
  },
  {
    "name": "Boukhadra",
    "code_postal": 12018,
    "longitude": 8.0346837,
    "latitude": 35.7449518,
    "wilaya": 12
  },
  {
    "name": "Ouenza",
    "code_postal": 12019,
    "longitude": 8.1369011,
    "latitude": 35.9445854,
    "wilaya": 12
  },
  {
    "name": "El Ma El Biodh",
    "code_postal": 12020,
    "longitude": -0.1306774,
    "latitude": 33.7636135,
    "wilaya": 12
  },
  {
    "name": "Oum Ali",
    "code_postal": 12021,
    "longitude": 8.3007443,
    "latitude": 35.0113285,
    "wilaya": 12
  },
  {
    "name": "Thlidjene",
    "code_postal": 12022,
    "longitude": 5.0401406,
    "latitude": 35.9473481,
    "wilaya": 12
  },
  {
    "name": "Ain Zerga",
    "code_postal": 12023,
    "longitude": 8.2603257,
    "latitude": 35.6480159,
    "wilaya": 12
  },
  {
    "name": "El Meridj",
    "code_postal": 12024,
    "longitude": 8.2292549,
    "latitude": 35.7933758,
    "wilaya": 12
  },
  {
    "name": "Boulhaf Dyr",
    "code_postal": 12025,
    "longitude": 8.069688804521256,
    "latitude": 35.488388099999995,
    "wilaya": 12
  },
  {
    "name": "Bedjene",
    "code_postal": 12026,
    "longitude": 7.4715565,
    "latitude": 35.3493304,
    "wilaya": 12
  },
  {
    "name": "El Mazeraa",
    "code_postal": 12027,
    "longitude": 8.8428542,
    "latitude": 35.1662769,
    "wilaya": 12
  },
  {
    "name": "Ferkane",
    "code_postal": 12028,
    "longitude": 7.4130616,
    "latitude": 34.5554155,
    "wilaya": 12
  },
  {
    "name": "Tlemcen",
    "code_postal": 13001,
    "longitude": -1.316699,
    "latitude": 34.881789,
    "wilaya": 13
  },
  {
    "name": "Beni Mester",
    "code_postal": 13002,
    "longitude": -1.4210036,
    "latitude": 34.8704485,
    "wilaya": 13
  },
  {
    "name": "Ain Tallout",
    "code_postal": 13003,
    "longitude": -0.9542742,
    "latitude": 34.9299907,
    "wilaya": 13
  },
  {
    "name": "Remchi",
    "code_postal": 13004,
    "longitude": -1.4318326,
    "latitude": 35.0617268,
    "wilaya": 13
  },
  {
    "name": "El Fehoul",
    "code_postal": 13005,
    "longitude": -1.2947853,
    "latitude": 35.1156547,
    "wilaya": 13
  },
  {
    "name": "Sabra",
    "code_postal": 13006,
    "longitude": -1.530335,
    "latitude": 34.8260248,
    "wilaya": 13
  },
  {
    "name": "Ghazaouet",
    "code_postal": 13007,
    "longitude": -1.86322,
    "latitude": 35.093863,
    "wilaya": 13
  },
  {
    "name": "Souani",
    "code_postal": 13008,
    "longitude": -1.9158423,
    "latitude": 34.9221475,
    "wilaya": 13
  },
  {
    "name": "Djebala",
    "code_postal": 13009,
    "longitude": -1.8212834325393676,
    "latitude": 34.95990875,
    "wilaya": 13
  },
  {
    "name": "El Gor",
    "code_postal": 13010,
    "longitude": -1.1532242,
    "latitude": 34.6379987,
    "wilaya": 13
  },
  {
    "name": "Oued Chouly",
    "code_postal": 13011,
    "longitude": 6.6131669,
    "latitude": 36.8763035,
    "wilaya": 13
  },
  {
    "name": "Ain Fezza",
    "code_postal": 13012,
    "longitude": -1.2348586,
    "latitude": 34.8780405,
    "wilaya": 13
  },
  {
    "name": "Ouled Mimoun",
    "code_postal": 13013,
    "longitude": -1.0281674,
    "latitude": 34.904794,
    "wilaya": 13
  },
  {
    "name": "Amieur",
    "code_postal": 13014,
    "longitude": -1.2389953,
    "latitude": 35.0351556,
    "wilaya": 13
  },
  {
    "name": "Ain Youcef",
    "code_postal": 13015,
    "longitude": -1.3739319,
    "latitude": 35.0472865,
    "wilaya": 13
  },
  {
    "name": "Zenata",
    "code_postal": 13016,
    "longitude": -1.4630565,
    "latitude": 34.9894903,
    "wilaya": 13
  },
  {
    "name": "Beni Snous",
    "code_postal": 13017,
    "longitude": -1.5551957120978965,
    "latitude": 34.62462815,
    "wilaya": 13
  },
  {
    "name": "Bab El Assa",
    "code_postal": 13018,
    "longitude": -2.0317999,
    "latitude": 34.9661057,
    "wilaya": 13
  },
  {
    "name": "Dar Yaghmouracene",
    "code_postal": 13019,
    "longitude": -1.7741173043959828,
    "latitude": 35.10531875,
    "wilaya": 13
  },
  {
    "name": "Fellaoucene",
    "code_postal": 13020,
    "longitude": -1.570073280761774,
    "latitude": 35.0137351,
    "wilaya": 13
  },
  {
    "name": "Azails",
    "code_postal": 13021,
    "longitude": -1.4228283930396692,
    "latitude": 34.6542249,
    "wilaya": 13
  },
  {
    "name": "Sebbaa Chioukh",
    "code_postal": 13022,
    "longitude": -1.3605746,
    "latitude": 35.1564008,
    "wilaya": 13
  },
  {
    "name": "Terni Beni Hediel",
    "code_postal": 13023,
    "longitude": -1.35539555,
    "latitude": 34.7956632,
    "wilaya": 13
  },
  {
    "name": "Bensekrane",
    "code_postal": 13024,
    "longitude": -1.2273507,
    "latitude": 35.072063,
    "wilaya": 13
  },
  {
    "name": "Ain Nehala",
    "code_postal": 13025,
    "longitude": -123.92941565333638,
    "latitude": 45.6969196,
    "wilaya": 13
  },
  {
    "name": "Hennaya",
    "code_postal": 13026,
    "longitude": -1.3667337,
    "latitude": 34.9506637,
    "wilaya": 13
  },
  {
    "name": "Maghnia",
    "code_postal": 13027,
    "longitude": -1.729658,
    "latitude": 34.847199,
    "wilaya": 13
  },
  {
    "name": "Hammam Boughrara",
    "code_postal": 13028,
    "longitude": -1.6382574,
    "latitude": 34.8936813,
    "wilaya": 13
  },
  {
    "name": "Souahlia",
    "code_postal": 13029,
    "longitude": -1.8970124036734397,
    "latitude": 35.02699355,
    "wilaya": 13
  },
  {
    "name": "Msirda Fouaga",
    "code_postal": 13030,
    "longitude": -2.0831565368266136,
    "latitude": 35.01885765,
    "wilaya": 13
  },
  {
    "name": "Ain Fetah",
    "code_postal": 13031,
    "longitude": -1.6375286,
    "latitude": 34.9655836,
    "wilaya": 13
  },
  {
    "name": "El Aricha",
    "code_postal": 13032,
    "longitude": -1.2576653,
    "latitude": 34.2240422,
    "wilaya": 13
  },
  {
    "name": "Souk Thlata",
    "code_postal": 13033,
    "longitude": 3.4620784,
    "latitude": 36.0738879,
    "wilaya": 13
  },
  {
    "name": "Sidi Abdelli",
    "code_postal": 13034,
    "longitude": -1.1342872,
    "latitude": 35.0646495,
    "wilaya": 13
  },
  {
    "name": "Sebdou",
    "code_postal": 13035,
    "longitude": -1.3220383,
    "latitude": 34.6403022,
    "wilaya": 13
  },
  {
    "name": "Beni Ouarsous",
    "code_postal": 13036,
    "longitude": -1.5578444,
    "latitude": 35.083108,
    "wilaya": 13
  },
  {
    "name": "Sidi Medjahed",
    "code_postal": 13037,
    "longitude": -1.6366325,
    "latitude": 34.7751425,
    "wilaya": 13
  },
  {
    "name": "Beni Boussaid",
    "code_postal": 13038,
    "longitude": -1.7529879,
    "latitude": 34.6480251,
    "wilaya": 13
  },
  {
    "name": "Marsa Ben Mhidi",
    "code_postal": 13039,
    "longitude": -2.2050776669690944,
    "latitude": 35.07818535,
    "wilaya": 13
  },
  {
    "name": "Nedroma",
    "code_postal": 13040,
    "longitude": -1.74805,
    "latitude": 35.0107602,
    "wilaya": 13
  },
  {
    "name": "Sidi Djillali",
    "code_postal": 13041,
    "longitude": -1.495380705295435,
    "latitude": 34.41682885,
    "wilaya": 13
  },
  {
    "name": "Beni Bahdel",
    "code_postal": 13042,
    "longitude": -1.5187011,
    "latitude": 34.6937442,
    "wilaya": 13
  },
  {
    "name": "El Bouihi",
    "code_postal": 13043,
    "longitude": -1.6858993,
    "latitude": 34.4138137,
    "wilaya": 13
  },
  {
    "name": "Honaine",
    "code_postal": 13044,
    "longitude": -1.6534421,
    "latitude": 35.178264,
    "wilaya": 13
  },
  {
    "name": "Tianet",
    "code_postal": 13045,
    "longitude": 44.9681531,
    "latitude": 42.1098363,
    "wilaya": 13
  },
  {
    "name": "Ouled Riyah",
    "code_postal": 13046,
    "longitude": -1.4980498,
    "latitude": 34.9610292,
    "wilaya": 13
  },
  {
    "name": "Bouhlou",
    "code_postal": 13047,
    "longitude": -4.362776045906257,
    "latitude": 34.15303539999999,
    "wilaya": 13
  },
  {
    "name": "Souk El Khemis",
    "code_postal": 13048,
    "longitude": 3.631778,
    "latitude": 36.3912273,
    "wilaya": 13
  },
  {
    "name": "Ain Ghoraba",
    "code_postal": 13049,
    "longitude": -1.3890968,
    "latitude": 34.7137838,
    "wilaya": 13
  },
  {
    "name": "Chetouane",
    "code_postal": 13050,
    "longitude": -1.2910642,
    "latitude": 34.9207591,
    "wilaya": 13
  },
  {
    "name": "Mansourah",
    "code_postal": 13051,
    "longitude": -1.3302647,
    "latitude": 34.8733172,
    "wilaya": 13
  },
  {
    "name": "Beni Semiel",
    "code_postal": 13052,
    "longitude": -1.0917147225529444,
    "latitude": 34.78512125,
    "wilaya": 13
  },
  {
    "name": "Ain Kebira",
    "code_postal": 13053,
    "longitude": 5.5069356,
    "latitude": 36.3648446,
    "wilaya": 13
  },
  {
    "name": "Tiaret",
    "code_postal": 14001,
    "longitude": 1.3194687,
    "latitude": 35.3661448,
    "wilaya": 14
  },
  {
    "name": "Medroussa",
    "code_postal": 14002,
    "longitude": 1.0923020497353184,
    "latitude": 35.204432999999995,
    "wilaya": 14
  },
  {
    "name": "Ain Bouchekif",
    "code_postal": 14003,
    "longitude": 1.5106412,
    "latitude": 35.3549663,
    "wilaya": 14
  },
  {
    "name": "Sidi Ali Mellal",
    "code_postal": 14004,
    "longitude": 1.227165,
    "latitude": 35.5621413,
    "wilaya": 14
  },
  {
    "name": "Ain Zarit",
    "code_postal": 14005,
    "longitude": 1.6669943,
    "latitude": 35.3533903,
    "wilaya": 14
  },
  {
    "name": "Ain Deheb",
    "code_postal": 14006,
    "longitude": 1.5507838,
    "latitude": 34.846403,
    "wilaya": 14
  },
  {
    "name": "Sidi Bakhti",
    "code_postal": 14007,
    "longitude": 0.979847,
    "latitude": 35.2412775,
    "wilaya": 14
  },
  {
    "name": "Medrissa",
    "code_postal": 14008,
    "longitude": 1.2458048,
    "latitude": 34.8924859,
    "wilaya": 14
  },
  {
    "name": "Zmalet El Emir Aek",
    "code_postal": 14009,
    "longitude": 2.3099441,
    "latitude": 34.894606,
    "wilaya": 14
  },
  {
    "name": "Madna",
    "code_postal": 14010,
    "longitude": 0.9831648,
    "latitude": 34.7539462,
    "wilaya": 14
  },
  {
    "name": "Sebt",
    "code_postal": 14011,
    "longitude": 1.3525749,
    "latitude": 35.6192337,
    "wilaya": 14
  },
  {
    "name": "Mellakou",
    "code_postal": 14012,
    "longitude": 1.2373686,
    "latitude": 35.2507107,
    "wilaya": 14
  },
  {
    "name": "Dahmouni",
    "code_postal": 14013,
    "longitude": 1.4746045,
    "latitude": 35.4167989,
    "wilaya": 14
  },
  {
    "name": "Rahouia",
    "code_postal": 14014,
    "longitude": 1.0237833,
    "latitude": 35.53032,
    "wilaya": 14
  },
  {
    "name": "Mahdia",
    "code_postal": 14015,
    "longitude": 1.8188385689518647,
    "latitude": 35.3121189,
    "wilaya": 14
  },
  {
    "name": "Sougueur",
    "code_postal": 14016,
    "longitude": 1.496745,
    "latitude": 35.186167,
    "wilaya": 14
  },
  {
    "name": "Sidi Abdelghani",
    "code_postal": 14017,
    "longitude": -0.6425857072842409,
    "latitude": 35.189455499999994,
    "wilaya": 14
  },
  {
    "name": "Ain El Hadid",
    "code_postal": 14018,
    "longitude": 0.8856345,
    "latitude": 35.0554796,
    "wilaya": 14
  },
  {
    "name": "Ouled Djerad",
    "code_postal": 14019,
    "longitude": 1.2447588,
    "latitude": 36.1637597,
    "wilaya": 14
  },
  {
    "name": "Naima",
    "code_postal": 14020,
    "longitude": -2.2179267,
    "latitude": 34.6051162,
    "wilaya": 14
  },
  {
    "name": "Meghila",
    "code_postal": 14021,
    "longitude": 1.4948605413198575,
    "latitude": 35.578525,
    "wilaya": 14
  },
  {
    "name": "Guertoufa",
    "code_postal": 14022,
    "longitude": 1.2553218,
    "latitude": 35.3934561,
    "wilaya": 14
  },
  {
    "name": "Sidi Hosni",
    "code_postal": 14023,
    "longitude": 1.5215971,
    "latitude": 35.4702113,
    "wilaya": 14
  },
  {
    "name": "Djillali Ben Amar",
    "code_postal": 14024,
    "longitude": 0.8499086,
    "latitude": 35.4459222,
    "wilaya": 14
  },
  {
    "name": "Sebaine",
    "code_postal": 14025,
    "longitude": 1.6043379,
    "latitude": 35.4553907,
    "wilaya": 14
  },
  {
    "name": "Tousnina",
    "code_postal": 14026,
    "longitude": 1.2762703,
    "latitude": 35.1121895,
    "wilaya": 14
  },
  {
    "name": "Frenda",
    "code_postal": 14027,
    "longitude": 1.0566092,
    "latitude": 35.0655965,
    "wilaya": 14
  },
  {
    "name": "Ain Kermes",
    "code_postal": 14028,
    "longitude": 1.1110349,
    "latitude": 34.9097511,
    "wilaya": 14
  },
  {
    "name": "Ksar Chellala",
    "code_postal": 14029,
    "longitude": 2.3129403,
    "latitude": 35.2143453,
    "wilaya": 14
  },
  {
    "name": "Rechaiga",
    "code_postal": 14030,
    "longitude": 1.9728437,
    "latitude": 35.4102295,
    "wilaya": 14
  },
  {
    "name": "Nadorah",
    "code_postal": 14031,
    "longitude": 1.8864247,
    "latitude": 35.290785,
    "wilaya": 14
  },
  {
    "name": "Tagdemt",
    "code_postal": 14032,
    "longitude": 1.2290501,
    "latitude": 35.3347734,
    "wilaya": 14
  },
  {
    "name": "Oued Lilli",
    "code_postal": 14033,
    "longitude": 1.2673933139378903,
    "latitude": 35.5070619,
    "wilaya": 14
  },
  {
    "name": "Mechraa Safa",
    "code_postal": 14034,
    "longitude": 1.0544339,
    "latitude": 35.3848636,
    "wilaya": 14
  },
  {
    "name": "Hamadia",
    "code_postal": 14035,
    "longitude": 1.8723935,
    "latitude": 35.4584077,
    "wilaya": 14
  },
  {
    "name": "Chehaima",
    "code_postal": 14036,
    "longitude": 1.3028861,
    "latitude": 34.8961966,
    "wilaya": 14
  },
  {
    "name": "Takhemaret",
    "code_postal": 14037,
    "longitude": 0.6833572,
    "latitude": 35.1072931,
    "wilaya": 14
  },
  {
    "name": "Sidi Abderrahmane",
    "code_postal": 14038,
    "longitude": 1.1313881,
    "latitude": 34.7992895,
    "wilaya": 14
  },
  {
    "name": "Serghine",
    "code_postal": 14039,
    "longitude": 2.4856664,
    "latitude": 35.2543447,
    "wilaya": 14
  },
  {
    "name": "Bougara",
    "code_postal": 14040,
    "longitude": 3.0869346,
    "latitude": 36.5448652,
    "wilaya": 14
  },
  {
    "name": "Faidja",
    "code_postal": 14041,
    "longitude": 1.7055845,
    "latitude": 35.1027237,
    "wilaya": 14
  },
  {
    "name": "Tidda",
    "code_postal": 14042,
    "longitude": 1.2680732,
    "latitude": 35.5831209,
    "wilaya": 14
  },
  {
    "name": "Tizi Ouzou",
    "code_postal": 15001,
    "longitude": 4.0493919,
    "latitude": 36.7137843,
    "wilaya": 15
  },
  {
    "name": "Ain El Hammam",
    "code_postal": 15002,
    "longitude": 4.3111366,
    "latitude": 36.5704326,
    "wilaya": 15
  },
  {
    "name": "Akbil",
    "code_postal": 15003,
    "longitude": 4.310016036886065,
    "latitude": 36.5040238,
    "wilaya": 15
  },
  {
    "name": "Freha",
    "code_postal": 15004,
    "longitude": 4.3194454,
    "latitude": 36.757399,
    "wilaya": 15
  },
  {
    "name": "Souamaa",
    "code_postal": 15005,
    "longitude": 4.3422178,
    "latitude": 36.6422876,
    "wilaya": 15
  },
  {
    "name": "Mechtrass",
    "code_postal": 15006,
    "longitude": 4.011092,
    "latitude": 36.5438917,
    "wilaya": 15
  },
  {
    "name": "Irdjen",
    "code_postal": 15007,
    "longitude": 4.146476218831084,
    "latitude": 36.6683028,
    "wilaya": 15
  },
  {
    "name": "Timizart",
    "code_postal": 15008,
    "longitude": 4.2461875,
    "latitude": 36.7978208,
    "wilaya": 15
  },
  {
    "name": "Makouda",
    "code_postal": 15009,
    "longitude": 4.0624221,
    "latitude": 36.7919734,
    "wilaya": 15
  },
  {
    "name": "Draa El Mizan",
    "code_postal": 15010,
    "longitude": 3.8724324192844675,
    "latitude": 36.5741345,
    "wilaya": 15
  },
  {
    "name": "Tizi Ghenif",
    "code_postal": 15011,
    "longitude": 3.7742759,
    "latitude": 36.5872274,
    "wilaya": 15
  },
  {
    "name": "Bounouh",
    "code_postal": 15012,
    "longitude": 3.937565601183763,
    "latitude": 36.493264999999994,
    "wilaya": 15
  },
  {
    "name": "Ait Chaffaa",
    "code_postal": 15013,
    "longitude": 4.524226968988,
    "latitude": 36.825813,
    "wilaya": 15
  },
  {
    "name": "Frikat",
    "code_postal": 15014,
    "longitude": 3.8856598,
    "latitude": 36.5133532,
    "wilaya": 15
  },
  {
    "name": "Beni Aissi",
    "code_postal": 15015,
    "longitude": 4.089330193029043,
    "latitude": 36.65770445,
    "wilaya": 15
  },
  {
    "name": "Beni Zmenzer",
    "code_postal": 15016,
    "longitude": 4.039063,
    "latitude": 36.6370642,
    "wilaya": 15
  },
  {
    "name": "Iferhounene",
    "code_postal": 15017,
    "longitude": 4.369522209836067,
    "latitude": 36.5209675,
    "wilaya": 15
  },
  {
    "name": "Azazga",
    "code_postal": 15018,
    "longitude": 4.3716399,
    "latitude": 36.744738,
    "wilaya": 15
  },
  {
    "name": "Iloula Oumalou",
    "code_postal": 15019,
    "longitude": 4.448736610031721,
    "latitude": 36.5649995,
    "wilaya": 15
  },
  {
    "name": "Yakouren",
    "code_postal": 15020,
    "longitude": 4.4389944,
    "latitude": 36.7335937,
    "wilaya": 15
  },
  {
    "name": "Larba Nait Irathen",
    "code_postal": 15021,
    "longitude": 4.2028466,
    "latitude": 36.6374918,
    "wilaya": 15
  },
  {
    "name": "Tizi Rached",
    "code_postal": 15022,
    "longitude": 4.2086164,
    "latitude": 36.6789662,
    "wilaya": 15
  },
  {
    "name": "Zekri",
    "code_postal": 15023,
    "longitude": 4.5895193,
    "latitude": 36.7803397,
    "wilaya": 15
  },
  {
    "name": "Ouaguenoun",
    "code_postal": 15024,
    "longitude": 4.18441093479243,
    "latitude": 36.75884915,
    "wilaya": 15
  },
  {
    "name": "Ain Zaouia",
    "code_postal": 15025,
    "longitude": 3.8948674,
    "latitude": 36.5502351,
    "wilaya": 15
  },
  {
    "name": "Mkira",
    "code_postal": 15026,
    "longitude": 3.783000570945944,
    "latitude": 36.6315675,
    "wilaya": 15
  },
  {
    "name": "Ait Yahia",
    "code_postal": 15027,
    "longitude": 4.343467940174766,
    "latitude": 36.5992546,
    "wilaya": 15
  },
  {
    "name": "Ait Mahmoud",
    "code_postal": 15028,
    "longitude": 4.119513993643815,
    "latitude": 36.61018025,
    "wilaya": 15
  },
  {
    "name": "Maatka",
    "code_postal": 15029,
    "longitude": 3.970186056768559,
    "latitude": 36.6107175,
    "wilaya": 15
  },
  {
    "name": "Ait Boumehdi",
    "code_postal": 15030,
    "longitude": 4.2040711,
    "latitude": 36.5204832,
    "wilaya": 15
  },
  {
    "name": "Abi Youcef",
    "code_postal": 15031,
    "longitude": 4.3403557,
    "latitude": 36.5414873,
    "wilaya": 15
  },
  {
    "name": "Beni Douala",
    "code_postal": 15032,
    "longitude": 4.085052437429141,
    "latitude": 36.6335991,
    "wilaya": 15
  },
  {
    "name": "Illilten",
    "code_postal": 15033,
    "longitude": 4.3944151,
    "latitude": 36.5160617,
    "wilaya": 15
  },
  {
    "name": "Bouzguen",
    "code_postal": 15034,
    "longitude": 4.485493360985462,
    "latitude": 36.6052205,
    "wilaya": 15
  },
  {
    "name": "Ait Aggouacha",
    "code_postal": 15035,
    "longitude": 4.232488,
    "latitude": 36.6178136,
    "wilaya": 15
  },
  {
    "name": "Ouadhia",
    "code_postal": 15036,
    "longitude": 4.0867217,
    "latitude": 36.555223,
    "wilaya": 15
  },
  {
    "name": "Azzefoun",
    "code_postal": 15037,
    "longitude": 4.4155024,
    "latitude": 36.8938485,
    "wilaya": 15
  },
  {
    "name": "Tigzirt",
    "code_postal": 15038,
    "longitude": 4.126179,
    "latitude": 36.8926614,
    "wilaya": 15
  },
  {
    "name": "Ait Aissa Mimoun",
    "code_postal": 15039,
    "longitude": 4.110324731883203,
    "latitude": 36.750654350000005,
    "wilaya": 15
  },
  {
    "name": "Boghni",
    "code_postal": 15040,
    "longitude": 3.9571285,
    "latitude": 36.5407471,
    "wilaya": 15
  },
  {
    "name": "Ifigha",
    "code_postal": 15041,
    "longitude": 4.4137989,
    "latitude": 36.6714929,
    "wilaya": 15
  },
  {
    "name": "Ait Oumalou",
    "code_postal": 15042,
    "longitude": 4.228438859928895,
    "latitude": 36.65516975,
    "wilaya": 15
  },
  {
    "name": "Tirmitine",
    "code_postal": 15043,
    "longitude": 3.9653731455019696,
    "latitude": 36.6686811,
    "wilaya": 15
  },
  {
    "name": "Akerrou",
    "code_postal": 15044,
    "longitude": 4.442184569428127,
    "latitude": 36.80743895,
    "wilaya": 15
  },
  {
    "name": "Yatafen",
    "code_postal": 15045,
    "longitude": 4.2557573,
    "latitude": 36.5519079,
    "wilaya": 15
  },
  {
    "name": "Beni Ziki",
    "code_postal": 15046,
    "longitude": 18.8710676,
    "latitude": 48.9948279,
    "wilaya": 15
  },
  {
    "name": "Draa Ben Khedda",
    "code_postal": 15047,
    "longitude": 3.9590903,
    "latitude": 36.7331343,
    "wilaya": 15
  },
  {
    "name": "Ouacif",
    "code_postal": 15048,
    "longitude": 4.2049176,
    "latitude": 36.523854,
    "wilaya": 15
  },
  {
    "name": "Idjeur",
    "code_postal": 15049,
    "longitude": 4.512344189556625,
    "latitude": 36.66627165,
    "wilaya": 15
  },
  {
    "name": "Mekla",
    "code_postal": 15050,
    "longitude": 4.2681185,
    "latitude": 36.6876391,
    "wilaya": 15
  },
  {
    "name": "Tizi Nthlata",
    "code_postal": 15051,
    "longitude": "3.04",
    "latitude": "30.7071885",
    "wilaya": 15
  },
  {
    "name": "Beni Yenni",
    "code_postal": 15052,
    "longitude": 4.1964738,
    "latitude": 36.5829452,
    "wilaya": 15
  },
  {
    "name": "Aghrib",
    "code_postal": 15053,
    "longitude": 4.3230947,
    "latitude": 36.8045313,
    "wilaya": 15
  },
  {
    "name": "Iflissen",
    "code_postal": 15054,
    "longitude": 4.222187730268375,
    "latitude": 36.87221665,
    "wilaya": 15
  },
  {
    "name": "Boudjima",
    "code_postal": 15055,
    "longitude": 4.14883996116279,
    "latitude": 36.804707199999996,
    "wilaya": 15
  },
  {
    "name": "Ait Yahia Moussa",
    "code_postal": 15056,
    "longitude": 3.8862283,
    "latitude": 36.6379122,
    "wilaya": 15
  },
  {
    "name": "Souk El Thenine",
    "code_postal": 15057,
    "longitude": 5.3365523,
    "latitude": 36.6251894,
    "wilaya": 15
  },
  {
    "name": "Ait Khelil",
    "code_postal": 15058,
    "longitude": 4.308820034703983,
    "latitude": 36.675792099999995,
    "wilaya": 15
  },
  {
    "name": "Sidi Naamane",
    "code_postal": 15059,
    "longitude": 3.1265784,
    "latitude": 36.2147224,
    "wilaya": 15
  },
  {
    "name": "Iboudraren",
    "code_postal": 15060,
    "longitude": 4.251282426274334,
    "latitude": 36.509313950000006,
    "wilaya": 15
  },
  {
    "name": "Aghni Goughran",
    "code_postal": 15061,
    "longitude": "3.04",
    "latitude": "30.7071885",
    "wilaya": 15
  },
  {
    "name": "Mizrana",
    "code_postal": 15062,
    "longitude": 4.0962588,
    "latitude": 36.8447164,
    "wilaya": 15
  },
  {
    "name": "Imsouhal",
    "code_postal": 15063,
    "longitude": 4.392711661961059,
    "latitude": 36.5802779,
    "wilaya": 15
  },
  {
    "name": "Tadmait",
    "code_postal": 15064,
    "longitude": 3.9012256,
    "latitude": 36.7446573,
    "wilaya": 15
  },
  {
    "name": "Ait Bouadou",
    "code_postal": 15065,
    "longitude": 4.061254524194421,
    "latitude": 36.5032098,
    "wilaya": 15
  },
  {
    "name": "Assi Youcef",
    "code_postal": 15066,
    "longitude": 4.0145154,
    "latitude": 36.5055421,
    "wilaya": 15
  },
  {
    "name": "Ait Toudert",
    "code_postal": 15067,
    "longitude": 4.1844513,
    "latitude": 36.5203106,
    "wilaya": 15
  },
  {
    "name": "Alger Centre",
    "code_postal": 16001,
    "longitude": 3.0583128,
    "latitude": 36.7761881,
    "wilaya": 16
  },
  {
    "name": "Sidi Mhamed",
    "code_postal": 16002,
    "longitude": 2.014750985699502,
    "latitude": 36.32947435,
    "wilaya": 16
  },
  {
    "name": "El Madania",
    "code_postal": 16003,
    "longitude": 3.0665715,
    "latitude": 36.7420067,
    "wilaya": 16
  },
  {
    "name": "Hamma Anassers",
    "code_postal": 16004,
    "longitude": "3.04",
    "latitude": "30.7071885",
    "wilaya": 16
  },
  {
    "name": "Bab El Oued",
    "code_postal": 16005,
    "longitude": 3.0530812,
    "latitude": 36.7907677,
    "wilaya": 16
  },
  {
    "name": "Bologhine Ibn Ziri",
    "code_postal": 16006,
    "longitude": 2.9788448,
    "latitude": 36.8099251,
    "wilaya": 16
  },
  {
    "name": "Casbah",
    "code_postal": 16007,
    "longitude": 3.0595865,
    "latitude": 36.7846766,
    "wilaya": 16
  },
  {
    "name": "Oued Koriche",
    "code_postal": 16008,
    "longitude": 3.0430918,
    "latitude": 36.7853487,
    "wilaya": 16
  },
  {
    "name": "Bir Mourad Rais",
    "code_postal": 16009,
    "longitude": 3.0500748,
    "latitude": 36.7393938,
    "wilaya": 16
  },
  {
    "name": "El Biar",
    "code_postal": 16010,
    "longitude": 3.030651,
    "latitude": 36.7688818,
    "wilaya": 16
  },
  {
    "name": "Bouzareah",
    "code_postal": 16011,
    "longitude": 3.0166197,
    "latitude": 36.790372,
    "wilaya": 16
  },
  {
    "name": "Birkhadem",
    "code_postal": 16012,
    "longitude": 3.0497361,
    "latitude": 36.716075,
    "wilaya": 16
  },
  {
    "name": "El Harrach",
    "code_postal": 16013,
    "longitude": 3.138894337993684,
    "latitude": 36.7119155,
    "wilaya": 16
  },
  {
    "name": "Baraki",
    "code_postal": 16014,
    "longitude": 3.0961318,
    "latitude": 36.6679961,
    "wilaya": 16
  },
  {
    "name": "Oued Smar",
    "code_postal": 16015,
    "longitude": 3.1681561,
    "latitude": 36.7044199,
    "wilaya": 16
  },
  {
    "name": "Bourouba",
    "code_postal": 16016,
    "longitude": 3.1125789,
    "latitude": 36.7138232,
    "wilaya": 16
  },
  {
    "name": "Hussein Dey",
    "code_postal": 16017,
    "longitude": 3.094027,
    "latitude": 36.7429388,
    "wilaya": 16
  },
  {
    "name": "Kouba",
    "code_postal": 16018,
    "longitude": 3.0875358,
    "latitude": 36.7324436,
    "wilaya": 16
  },
  {
    "name": "Bachedjerah",
    "code_postal": 16019,
    "longitude": 3.1157826,
    "latitude": 36.7213202,
    "wilaya": 16
  },
  {
    "name": "Dar El Beida",
    "code_postal": 16020,
    "longitude": 3.2094611,
    "latitude": 36.7149768,
    "wilaya": 16
  },
  {
    "name": "Bab Azzouar",
    "code_postal": 16021,
    "longitude": 3.0617223,
    "latitude": 36.7827759,
    "wilaya": 16
  },
  {
    "name": "Ben Aknoun",
    "code_postal": 16022,
    "longitude": 3.0197169,
    "latitude": 36.759271,
    "wilaya": 16
  },
  {
    "name": "Dely Ibrahim",
    "code_postal": 16023,
    "longitude": 2.982359,
    "latitude": 36.7513181,
    "wilaya": 16
  },
  {
    "name": "Bains Romains",
    "code_postal": 16024,
    "longitude": 2.6678921216414233,
    "latitude": 42.4698954,
    "wilaya": 16
  },
  {
    "name": "Rais Hamidou",
    "code_postal": 16025,
    "longitude": 3.0114701,
    "latitude": 36.8174128,
    "wilaya": 16
  },
  {
    "name": "Djasr Kasentina",
    "code_postal": 16026,
    "longitude": 3.073695,
    "latitude": 36.692975,
    "wilaya": 16
  },
  {
    "name": "El Mouradia",
    "code_postal": 16027,
    "longitude": 3.0500935,
    "latitude": 36.7474963,
    "wilaya": 16
  },
  {
    "name": "Hydra",
    "code_postal": 16028,
    "longitude": 3.0401832,
    "latitude": 36.7474259,
    "wilaya": 16
  },
  {
    "name": "Mohammadia",
    "code_postal": 16029,
    "longitude": 0.0670398,
    "latitude": 35.5892003,
    "wilaya": 16
  },
  {
    "name": "Bordj El Kiffan",
    "code_postal": 16030,
    "longitude": 3.1908953,
    "latitude": 36.747273,
    "wilaya": 16
  },
  {
    "name": "El Magharia",
    "code_postal": 16031,
    "longitude": 3.1085569,
    "latitude": 36.7313349,
    "wilaya": 16
  },
  {
    "name": "Beni Messous",
    "code_postal": 16032,
    "longitude": 2.9745358,
    "latitude": 36.7800996,
    "wilaya": 16
  },
  {
    "name": "Les Eucalyptus",
    "code_postal": 16033,
    "longitude": 3.1472616,
    "latitude": 36.6567143,
    "wilaya": 16
  },
  {
    "name": "Birtouta",
    "code_postal": 16034,
    "longitude": 2.9985533,
    "latitude": 36.6449884,
    "wilaya": 16
  },
  {
    "name": "Tassala El Merdja",
    "code_postal": 16035,
    "longitude": 2.9459318,
    "latitude": 36.6293787,
    "wilaya": 16
  },
  {
    "name": "Ouled Chebel",
    "code_postal": 16036,
    "longitude": 2.9949504,
    "latitude": 36.5981574,
    "wilaya": 16
  },
  {
    "name": "Sidi Moussa",
    "code_postal": 16037,
    "longitude": 3.0881462,
    "latitude": 36.6062538,
    "wilaya": 16
  },
  {
    "name": "Ain Taya",
    "code_postal": 16038,
    "longitude": 3.2926194,
    "latitude": 36.7912902,
    "wilaya": 16
  },
  {
    "name": "Bordj El Bahri",
    "code_postal": 16039,
    "longitude": 3.2501775,
    "latitude": 36.7907949,
    "wilaya": 16
  },
  {
    "name": "Marsa",
    "code_postal": 16040,
    "longitude": 2.1551881,
    "latitude": 42.8225242,
    "wilaya": 16
  },
  {
    "name": "Haraoua",
    "code_postal": 16041,
    "longitude": -5.5183983,
    "latitude": 34.0188759,
    "wilaya": 16
  },
  {
    "name": "Rouiba",
    "code_postal": 16042,
    "longitude": 3.2826417,
    "latitude": 36.7364237,
    "wilaya": 16
  },
  {
    "name": "Reghaia",
    "code_postal": 16043,
    "longitude": 3.3421179,
    "latitude": 36.7387813,
    "wilaya": 16
  },
  {
    "name": "Ain Benian",
    "code_postal": 16044,
    "longitude": 2.9216786,
    "latitude": 36.8033059,
    "wilaya": 16
  },
  {
    "name": "Staoueli",
    "code_postal": 16045,
    "longitude": 2.8881822,
    "latitude": 36.7532755,
    "wilaya": 16
  },
  {
    "name": "Zeralda",
    "code_postal": 16046,
    "longitude": 2.8407894,
    "latitude": 36.7120392,
    "wilaya": 16
  },
  {
    "name": "Mahelma",
    "code_postal": 16047,
    "longitude": 2.87765,
    "latitude": 36.6823629,
    "wilaya": 16
  },
  {
    "name": "Rahmania",
    "code_postal": 16048,
    "longitude": 2.9064684,
    "latitude": 36.6805367,
    "wilaya": 16
  },
  {
    "name": "Souidania",
    "code_postal": 16049,
    "longitude": 2.9125592,
    "latitude": 36.7079748,
    "wilaya": 16
  },
  {
    "name": "Cheraga",
    "code_postal": 16050,
    "longitude": 2.9602571,
    "latitude": 36.7669269,
    "wilaya": 16
  },
  {
    "name": "Ouled Fayet",
    "code_postal": 16051,
    "longitude": 2.9509176,
    "latitude": 36.7356357,
    "wilaya": 16
  },
  {
    "name": "El Achour",
    "code_postal": 16052,
    "longitude": 2.9905236,
    "latitude": 36.7341624,
    "wilaya": 16
  },
  {
    "name": "Draria",
    "code_postal": 16053,
    "longitude": 2.973538877264175,
    "latitude": 36.68957035,
    "wilaya": 16
  },
  {
    "name": "Douera",
    "code_postal": 16054,
    "longitude": 2.9421031,
    "latitude": 36.6694089,
    "wilaya": 16
  },
  {
    "name": "Baba Hassen",
    "code_postal": 16055,
    "longitude": 2.9718223,
    "latitude": 36.6943783,
    "wilaya": 16
  },
  {
    "name": "Khracia",
    "code_postal": 16056,
    "longitude": 2.98177,
    "latitude": 36.6771868,
    "wilaya": 16
  },
  {
    "name": "Saoula",
    "code_postal": 16057,
    "longitude": 3.0238994,
    "latitude": 36.7027016,
    "wilaya": 16
  },
  {
    "name": "Djelfa",
    "code_postal": 17001,
    "longitude": 3.217253079090331,
    "latitude": 34.342841,
    "wilaya": 17
  },
  {
    "name": "Moudjebara",
    "code_postal": 17002,
    "longitude": 3.4699703,
    "latitude": 34.5033353,
    "wilaya": 17
  },
  {
    "name": "El Guedid",
    "code_postal": 17003,
    "longitude": 2.6167746,
    "latitude": 34.6485902,
    "wilaya": 17
  },
  {
    "name": "Hassi Bahbah",
    "code_postal": 17004,
    "longitude": 3.0270488,
    "latitude": 35.0747536,
    "wilaya": 17
  },
  {
    "name": "Ain Maabed",
    "code_postal": 17005,
    "longitude": 3.1300421,
    "latitude": 34.8042072,
    "wilaya": 17
  },
  {
    "name": "Sed Rahal",
    "code_postal": 17006,
    "longitude": 3.2254169,
    "latitude": 33.9488196,
    "wilaya": 17
  },
  {
    "name": "Feidh El Botma",
    "code_postal": 17007,
    "longitude": 3.7770894,
    "latitude": 34.5254758,
    "wilaya": 17
  },
  {
    "name": "Birine",
    "code_postal": 17008,
    "longitude": 3.2244016,
    "latitude": 35.6337386,
    "wilaya": 17
  },
  {
    "name": "Bouira Lahdeb",
    "code_postal": 17009,
    "longitude": 3.117979274303765,
    "latitude": 35.21561725,
    "wilaya": 17
  },
  {
    "name": "Zaccar",
    "code_postal": 17010,
    "longitude": 3.3275193,
    "latitude": 34.4325665,
    "wilaya": 17
  },
  {
    "name": "El Khemis",
    "code_postal": 17011,
    "longitude": 3.631778,
    "latitude": 36.3912273,
    "wilaya": 17
  },
  {
    "name": "Sidi Baizid",
    "code_postal": 17012,
    "longitude": 3.4304809,
    "latitude": 35.0579502,
    "wilaya": 17
  },
  {
    "name": "Mliliha",
    "code_postal": 17013,
    "longitude": 3.7684261,
    "latitude": 34.7111494,
    "wilaya": 17
  },
  {
    "name": "El Idrissia",
    "code_postal": 17014,
    "longitude": 2.5312873,
    "latitude": 34.4486677,
    "wilaya": 17
  },
  {
    "name": "Douis",
    "code_postal": 17015,
    "longitude": 2.7025089,
    "latitude": 34.3660796,
    "wilaya": 17
  },
  {
    "name": "Hassi El Euch",
    "code_postal": 17016,
    "longitude": 3.2484615,
    "latitude": 35.1526924,
    "wilaya": 17
  },
  {
    "name": "Messaad",
    "code_postal": 17017,
    "longitude": 3.492231,
    "latitude": 34.1540811,
    "wilaya": 17
  },
  {
    "name": "Guettara",
    "code_postal": 17018,
    "longitude": 4.6848,
    "latitude": 33.1616877,
    "wilaya": 17
  },
  {
    "name": "Sidi Ladjel",
    "code_postal": 17019,
    "longitude": 2.5157705,
    "latitude": 35.4381272,
    "wilaya": 17
  },
  {
    "name": "Had Sahary",
    "code_postal": 17020,
    "longitude": 3.3640573,
    "latitude": 35.3506602,
    "wilaya": 17
  },
  {
    "name": "Guernini",
    "code_postal": 17021,
    "longitude": 2.6832462,
    "latitude": 35.1998234,
    "wilaya": 17
  },
  {
    "name": "Selmana",
    "code_postal": 17022,
    "longitude": 3.6008129,
    "latitude": 34.1768421,
    "wilaya": 17
  },
  {
    "name": "Ain Chouhada",
    "code_postal": 17023,
    "longitude": 2.5221964,
    "latitude": 34.2410884,
    "wilaya": 17
  },
  {
    "name": "Oum Laadham",
    "code_postal": 17024,
    "longitude": 4.5309925,
    "latitude": 33.7200204,
    "wilaya": 17
  },
  {
    "name": "Dar Chouikh",
    "code_postal": 17025,
    "longitude": 3.4897249,
    "latitude": 34.8972924,
    "wilaya": 17
  },
  {
    "name": "Charef",
    "code_postal": 17026,
    "longitude": 2.8059171,
    "latitude": 34.6270918,
    "wilaya": 17
  },
  {
    "name": "Beni Yacoub",
    "code_postal": 17027,
    "longitude": -7.104887685065852,
    "latitude": 31.6311714,
    "wilaya": 17
  },
  {
    "name": "Zaafrane",
    "code_postal": 17028,
    "longitude": 2.8549624,
    "latitude": 34.8502549,
    "wilaya": 17
  },
  {
    "name": "Deldoul",
    "code_postal": 17029,
    "longitude": 0.0520901,
    "latitude": 28.7700895,
    "wilaya": 17
  },
  {
    "name": "Ain El Ibel",
    "code_postal": 17030,
    "longitude": 3.2238301,
    "latitude": 34.3550616,
    "wilaya": 17
  },
  {
    "name": "Ain Oussera",
    "code_postal": 17031,
    "longitude": 2.8788541008871036,
    "latitude": 35.5241061,
    "wilaya": 17
  },
  {
    "name": "Benhar",
    "code_postal": 17032,
    "longitude": 3.00944,
    "latitude": 35.484908,
    "wilaya": 17
  },
  {
    "name": "Hassi Fedoul",
    "code_postal": 17033,
    "longitude": 2.2141025,
    "latitude": 35.4367123,
    "wilaya": 17
  },
  {
    "name": "Amourah",
    "code_postal": 17034,
    "longitude": 3.872482,
    "latitude": 34.3441138,
    "wilaya": 17
  },
  {
    "name": "Ain Fekka",
    "code_postal": 17035,
    "longitude": -1.1380684,
    "latitude": 35.2879358,
    "wilaya": 17
  },
  {
    "name": "Tadmit",
    "code_postal": 17036,
    "longitude": 2.9921017,
    "latitude": 34.2885352,
    "wilaya": 17
  },
  {
    "name": "Jijel",
    "code_postal": 18001,
    "longitude": 5.771494,
    "latitude": 36.8167305,
    "wilaya": 18
  },
  {
    "name": "Erraguene",
    "code_postal": 18002,
    "longitude": 5.5812865,
    "latitude": 36.5864588,
    "wilaya": 18
  },
  {
    "name": "El Aouana",
    "code_postal": 18003,
    "longitude": 5.6114699,
    "latitude": 36.7716565,
    "wilaya": 18
  },
  {
    "name": "Ziamma Mansouriah",
    "code_postal": 18004,
    "longitude": 5.4808312,
    "latitude": 36.6721506,
    "wilaya": 18
  },
  {
    "name": "Taher",
    "code_postal": 18005,
    "longitude": 5.897589,
    "latitude": 36.7712912,
    "wilaya": 18
  },
  {
    "name": "Emir Abdelkader",
    "code_postal": 18006,
    "longitude": 2.2167871202126177,
    "latitude": 35.84122845,
    "wilaya": 18
  },
  {
    "name": "Chekfa",
    "code_postal": 18007,
    "longitude": 5.9612456,
    "latitude": 36.7712723,
    "wilaya": 18
  },
  {
    "name": "Chahna",
    "code_postal": 18008,
    "longitude": 5.9572034,
    "latitude": 36.6793738,
    "wilaya": 18
  },
  {
    "name": "El Milia",
    "code_postal": 18009,
    "longitude": 6.2744614,
    "latitude": 36.7514104,
    "wilaya": 18
  },
  {
    "name": "Sidi Maarouf",
    "code_postal": 18010,
    "longitude": 6.2741706,
    "latitude": 36.6400065,
    "wilaya": 18
  },
  {
    "name": "Settara",
    "code_postal": 18011,
    "longitude": 6.3349798,
    "latitude": 36.7188794,
    "wilaya": 18
  },
  {
    "name": "El Ancer",
    "code_postal": 18012,
    "longitude": 6.1587617,
    "latitude": 36.8000848,
    "wilaya": 18
  },
  {
    "name": "Sidi Abdelaziz",
    "code_postal": 18013,
    "longitude": 6.051473,
    "latitude": 36.853261,
    "wilaya": 18
  },
  {
    "name": "Kaous",
    "code_postal": 18014,
    "longitude": 5.8136168,
    "latitude": 36.7701723,
    "wilaya": 18
  },
  {
    "name": "Ghebala",
    "code_postal": 18015,
    "longitude": 6.388218,
    "latitude": 36.62825,
    "wilaya": 18
  },
  {
    "name": "Bouraoui Belhadef",
    "code_postal": 18016,
    "longitude": 6.103131,
    "latitude": 36.6992926,
    "wilaya": 18
  },
  {
    "name": "Djmila",
    "code_postal": 18017,
    "longitude": 0.9066984,
    "latitude": 33.6558495,
    "wilaya": 18
  },
  {
    "name": "Selma Benziada",
    "code_postal": 18018,
    "longitude": "3.04",
    "latitude": "30.7071885",
    "wilaya": 18
  },
  {
    "name": "Boussif Ouled Askeur",
    "code_postal": 18019,
    "longitude": 6.017753568367347,
    "latitude": 36.663596,
    "wilaya": 18
  },
  {
    "name": "El Kennar Nouchfi",
    "code_postal": 18020,
    "longitude": 5.9590698,
    "latitude": 36.8247188,
    "wilaya": 18
  },
  {
    "name": "Ouled Yahia Khadrouch",
    "code_postal": 18021,
    "longitude": 6.200802,
    "latitude": 36.7114239,
    "wilaya": 18
  },
  {
    "name": "Boudria Beni Yadjis",
    "code_postal": 18022,
    "longitude": 5.7325464,
    "latitude": 36.5792044,
    "wilaya": 18
  },
  {
    "name": "Kemir Oued Adjoul",
    "code_postal": 18023,
    "longitude": 6.157392490702877,
    "latitude": 36.8577899,
    "wilaya": 18
  },
  {
    "name": "Texena",
    "code_postal": 18024,
    "longitude": 5.7909778,
    "latitude": 36.6605708,
    "wilaya": 18
  },
  {
    "name": "Djemaa Beni Habibi",
    "code_postal": 18025,
    "longitude": 6.1263177,
    "latitude": 36.810668,
    "wilaya": 18
  },
  {
    "name": "Bordj Taher",
    "code_postal": 18026,
    "longitude": 5.028731866111975,
    "latitude": 35.93848355,
    "wilaya": 18
  },
  {
    "name": "Ouled Rabah",
    "code_postal": 18027,
    "longitude": 6.1677345,
    "latitude": 36.5992597,
    "wilaya": 18
  },
  {
    "name": "Ouadjana",
    "code_postal": 18028,
    "longitude": 5.8948904,
    "latitude": 36.7073159,
    "wilaya": 18
  },
  {
    "name": "Setif",
    "code_postal": 19001,
    "longitude": 5.4024656,
    "latitude": 36.1895852,
    "wilaya": 19
  },
  {
    "name": "Ain El Kebira",
    "code_postal": 19002,
    "longitude": 5.5069356,
    "latitude": 36.3648446,
    "wilaya": 19
  },
  {
    "name": "Beni Aziz",
    "code_postal": 19003,
    "longitude": 5.6490139,
    "latitude": 36.4645062,
    "wilaya": 19
  },
  {
    "name": "Ouled Sidi Ahmed",
    "code_postal": 19004,
    "longitude": 5.7284895,
    "latitude": 36.420574,
    "wilaya": 19
  },
  {
    "name": "Boutaleb",
    "code_postal": 19005,
    "longitude": 5.3215529,
    "latitude": 35.6599645,
    "wilaya": 19
  },
  {
    "name": "Ain Roua",
    "code_postal": 19006,
    "longitude": 5.1836626,
    "latitude": 36.3343734,
    "wilaya": 19
  },
  {
    "name": "Draa Kebila",
    "code_postal": 19007,
    "longitude": 4.997765144867094,
    "latitude": 36.4223095,
    "wilaya": 19
  },
  {
    "name": "Bir El Arch",
    "code_postal": 19008,
    "longitude": 5.8392064,
    "latitude": 36.1303925,
    "wilaya": 19
  },
  {
    "name": "Beni Chebana",
    "code_postal": 19009,
    "longitude": 4.8684047,
    "latitude": 36.4684262,
    "wilaya": 19
  },
  {
    "name": "Ouled Tebben",
    "code_postal": 19010,
    "longitude": 5.099846576569535,
    "latitude": 35.787703,
    "wilaya": 19
  },
  {
    "name": "Hamma",
    "code_postal": 19011,
    "longitude": 7.0836946,
    "latitude": 35.4642089,
    "wilaya": 19
  },
  {
    "name": "Maaouia",
    "code_postal": 19012,
    "longitude": 5.711824755544578,
    "latitude": 36.375027,
    "wilaya": 19
  },
  {
    "name": "Ain Legraj",
    "code_postal": 19013,
    "longitude": 4.903309687418478,
    "latitude": 36.4111145,
    "wilaya": 19
  },
  {
    "name": "Ain Abessa",
    "code_postal": 19014,
    "longitude": 5.2953337,
    "latitude": 36.3000482,
    "wilaya": 19
  },
  {
    "name": "Dehamcha",
    "code_postal": 19015,
    "longitude": 5.5924952,
    "latitude": 36.3835662,
    "wilaya": 19
  },
  {
    "name": "Babor",
    "code_postal": 19016,
    "longitude": 5.5378293,
    "latitude": 36.4898622,
    "wilaya": 19
  },
  {
    "name": "Guidjel",
    "code_postal": 19017,
    "longitude": 5.492026321351277,
    "latitude": 36.081278,
    "wilaya": 19
  },
  {
    "name": "Ain Lahdjar",
    "code_postal": 19018,
    "longitude": 5.5408781,
    "latitude": 35.9404062,
    "wilaya": 19
  },
  {
    "name": "Bousselam",
    "code_postal": 19019,
    "longitude": 5.007588511766011,
    "latitude": 36.493959000000004,
    "wilaya": 19
  },
  {
    "name": "El Eulma",
    "code_postal": 19020,
    "longitude": 5.6911588,
    "latitude": 36.1529057,
    "wilaya": 19
  },
  {
    "name": "Djemila",
    "code_postal": 19021,
    "longitude": 5.736807269486493,
    "latitude": 36.320742749999994,
    "wilaya": 19
  },
  {
    "name": "Beni Ouartilane",
    "code_postal": 19022,
    "longitude": 4.858286000236843,
    "latitude": 36.450387,
    "wilaya": 19
  },
  {
    "name": "Rosfa",
    "code_postal": 19023,
    "longitude": 5.2661899,
    "latitude": 35.8099925,
    "wilaya": 19
  },
  {
    "name": "Ouled Addouane",
    "code_postal": 19024,
    "longitude": 5.4374755,
    "latitude": 36.3375879,
    "wilaya": 19
  },
  {
    "name": "Belaa",
    "code_postal": 19025,
    "longitude": 5.869057100546448,
    "latitude": 36.220694,
    "wilaya": 19
  },
  {
    "name": "Ain Arnat",
    "code_postal": 19026,
    "longitude": 5.3144869,
    "latitude": 36.1849367,
    "wilaya": 19
  },
  {
    "name": "Amoucha",
    "code_postal": 19027,
    "longitude": 5.4134576,
    "latitude": 36.3870211,
    "wilaya": 19
  },
  {
    "name": "Ain Oulmane",
    "code_postal": 19028,
    "longitude": 5.2959232,
    "latitude": 35.9231689,
    "wilaya": 19
  },
  {
    "name": "Beidha Bordj",
    "code_postal": 19029,
    "longitude": 5.6318487229198215,
    "latitude": 35.837695,
    "wilaya": 19
  },
  {
    "name": "Bouandas",
    "code_postal": 19030,
    "longitude": 5.1036159281866205,
    "latitude": 36.5045875,
    "wilaya": 19
  },
  {
    "name": "Bazer Sakhra",
    "code_postal": 19031,
    "longitude": 5.7111139,
    "latitude": 36.1163229,
    "wilaya": 19
  },
  {
    "name": "Hammam Essokhna",
    "code_postal": 19032,
    "longitude": "3.04",
    "latitude": "30.7071885",
    "wilaya": 19
  },
  {
    "name": "Mezloug",
    "code_postal": 19033,
    "longitude": 5.3371932,
    "latitude": 36.1074201,
    "wilaya": 19
  },
  {
    "name": "Bir Haddada",
    "code_postal": 19034,
    "longitude": 5.458196135981128,
    "latitude": 35.9618075,
    "wilaya": 19
  },
  {
    "name": "Serdj El Ghoul",
    "code_postal": 19035,
    "longitude": 5.5804802,
    "latitude": 36.4778394,
    "wilaya": 19
  },
  {
    "name": "Harbil",
    "code_postal": 19036,
    "longitude": 4.925196672832984,
    "latitude": 36.3473445,
    "wilaya": 19
  },
  {
    "name": "El Ouricia",
    "code_postal": 19037,
    "longitude": 5.4095661,
    "latitude": 36.2837674,
    "wilaya": 19
  },
  {
    "name": "Tizi Nbechar",
    "code_postal": 19038,
    "longitude": "3.04",
    "latitude": "30.7071885",
    "wilaya": 19
  },
  {
    "name": "Salah Bey",
    "code_postal": 19039,
    "longitude": 5.2904883,
    "latitude": 35.8520786,
    "wilaya": 19
  },
  {
    "name": "Ain Azal",
    "code_postal": 19040,
    "longitude": 5.5111895,
    "latitude": 35.8178542,
    "wilaya": 19
  },
  {
    "name": "Guenzet",
    "code_postal": 19041,
    "longitude": 4.823945588538506,
    "latitude": 36.337205499999996,
    "wilaya": 19
  },
  {
    "name": "Talaifacene",
    "code_postal": 19042,
    "longitude": "3.04",
    "latitude": "30.7071885",
    "wilaya": 19
  },
  {
    "name": "Bougaa",
    "code_postal": 19043,
    "longitude": 5.146785141373931,
    "latitude": 36.303059000000005,
    "wilaya": 19
  },
  {
    "name": "Beni Fouda",
    "code_postal": 19044,
    "longitude": 5.5533470000000005,
    "latitude": 36.280316,
    "wilaya": 19
  },
  {
    "name": "Tachouda",
    "code_postal": 19045,
    "longitude": 5.714708,
    "latitude": 36.2614628,
    "wilaya": 19
  },
  {
    "name": "Beni Mouhli",
    "code_postal": 19046,
    "longitude": 4.894553725667356,
    "latitude": 36.513749950000005,
    "wilaya": 19
  },
  {
    "name": "Ouled Sabor",
    "code_postal": 19047,
    "longitude": 5.540385658667458,
    "latitude": 36.181942500000005,
    "wilaya": 19
  },
  {
    "name": "Guellal",
    "code_postal": 19048,
    "longitude": 5.3387839,
    "latitude": 36.0339934,
    "wilaya": 19
  },
  {
    "name": "Ain Sebt",
    "code_postal": 19049,
    "longitude": 5.718557494135256,
    "latitude": 36.49495105,
    "wilaya": 19
  },
  {
    "name": "Hammam Guergour",
    "code_postal": 19050,
    "longitude": 4.987995178359791,
    "latitude": 36.375821,
    "wilaya": 19
  },
  {
    "name": "Ait Naoual Mezada",
    "code_postal": 19051,
    "longitude": 136.237718,
    "latitude": 35.189273,
    "wilaya": 19
  },
  {
    "name": "Ksar El Abtal",
    "code_postal": 19052,
    "longitude": 5.2890497,
    "latitude": 35.9737047,
    "wilaya": 19
  },
  {
    "name": "Beni Hocine",
    "code_postal": 19053,
    "longitude": 5.1267919,
    "latitude": 36.2710094,
    "wilaya": 19
  },
  {
    "name": "Ait Tizi",
    "code_postal": 19054,
    "longitude": 5.156645136371381,
    "latitude": 36.535413500000004,
    "wilaya": 19
  },
  {
    "name": "Maouklane",
    "code_postal": 19055,
    "longitude": 5.1138393758772205,
    "latitude": 36.424463,
    "wilaya": 19
  },
  {
    "name": "Guelta Zerka",
    "code_postal": 19056,
    "longitude": 5.6886997,
    "latitude": 36.2085283,
    "wilaya": 19
  },
  {
    "name": "Oued El Barad",
    "code_postal": 19057,
    "longitude": 7.4674416,
    "latitude": 36.5349158,
    "wilaya": 19
  },
  {
    "name": "Taya",
    "code_postal": 19058,
    "longitude": 3.2926194,
    "latitude": 36.7912902,
    "wilaya": 19
  },
  {
    "name": "El Ouldja",
    "code_postal": 19059,
    "longitude": 1.1204532,
    "latitude": 35.909262,
    "wilaya": 19
  },
  {
    "name": "Tella",
    "code_postal": 19060,
    "longitude": 5.7188856,
    "latitude": 36.00827,
    "wilaya": 19
  },
  {
    "name": "Saida",
    "code_postal": 20001,
    "longitude": 0.1502692,
    "latitude": 34.8302067,
    "wilaya": 20
  },
  {
    "name": "Doui Thabet",
    "code_postal": 20002,
    "longitude": -0.0752179,
    "latitude": 34.8934623,
    "wilaya": 20
  },
  {
    "name": "Ain El Hadjar",
    "code_postal": 20003,
    "longitude": 3.8095209,
    "latitude": 36.3402284,
    "wilaya": 20
  },
  {
    "name": "Ouled Khaled",
    "code_postal": 20004,
    "longitude": 0.1531651,
    "latitude": 34.8753492,
    "wilaya": 20
  },
  {
    "name": "Moulay Larbi",
    "code_postal": 20005,
    "longitude": -0.19841711356470898,
    "latitude": 34.595299499999996,
    "wilaya": 20
  },
  {
    "name": "Youb",
    "code_postal": 20006,
    "longitude": -0.208054,
    "latitude": 34.921672,
    "wilaya": 20
  },
  {
    "name": "Hounet",
    "code_postal": 20007,
    "longitude": -0.1487685,
    "latitude": 35.118267,
    "wilaya": 20
  },
  {
    "name": "Sidi Amar",
    "code_postal": 20008,
    "longitude": 2.3059586,
    "latitude": 36.5424695,
    "wilaya": 20
  },
  {
    "name": "Sidi Boubekeur",
    "code_postal": 20009,
    "longitude": 0.0577939,
    "latitude": 35.0285832,
    "wilaya": 20
  },
  {
    "name": "El Hassasna",
    "code_postal": 20010,
    "longitude": -0.158441,
    "latitude": 35.7628309,
    "wilaya": 20
  },
  {
    "name": "Maamora",
    "code_postal": 20011,
    "longitude": 0.4999708,
    "latitude": 34.6809223,
    "wilaya": 20
  },